name;latitude;longitude;population
Tokyo;35.6897;139.6922;37732000
Jakarta;-6.175;106.8275;33756000
Delhi;28.61;77.23;32226000
Guangzhou;23.13;113.26;26940000
Mumbai;19.0761;72.8775;24973000
Manila;14.5958;120.9772;24922000
Shanghai;31.2286;121.4747;24073000
São Paulo;-23.55;-46.6333;23086000
Seoul;37.56;126.99;23016000
Mexico City;19.4333;-99.1333;21804000
Cairo;30.0444;31.2358;20296000
New York;40.6943;-73.9249;18908608
Dhaka;23.7639;90.3889;18627000
Beijing;39.9067;116.3975;18522000
Kolkāta;22.5675;88.37;18502000
Bangkok;13.7525;100.4942;18007000
Shenzhen;22.5415;114.0596;17619000
Moscow;55.7558;37.6172;17332000
Buenos Aires;-34.6033;-58.3817;16710000
Lagos;6.455;3.3841;16637000
Istanbul;41.0136;28.955;16079000
Karachi;24.86;67.01;15738000
Bangalore;12.9789;77.5917;15386000
Ho Chi Minh City;10.7756;106.7019;15136000
Ōsaka;34.6939;135.5022;15126000
Chengdu;30.66;104.0633;14645000
Tehran;35.6892;51.3889;14148000
Kinshasa;-4.3219;15.3119;12836000
Rio de Janeiro;-22.9111;-43.2056;12592000
Chennai;13.0825;80.275;12395000
Xi’an;34.2611;108.9422;12328000
Lahore;31.5497;74.3436;12306000
Chongqing;29.5637;106.5504;12135000
Los Angeles;34.1141;-118.4068;11922389
Baoding;38.874;115.464;11544036
London;51.5072;-0.1275;11262000
Paris;48.8567;2.3522;11060000
Linyi;35.1038;118.3564;11018365
Dongguan;23.021;113.752;10646000
Hyderābād;17.3617;78.4747;10494000
Tianjin;39.1336;117.2054;10368000
Lima;-12.06;-77.0375;10320000
Wuhan;30.5934;114.3046;10251000
Nanyang;32.9987;112.5292;9713112
Hangzhou;30.267;120.153;9523000
Foshan;23.0214;113.1216;9498863
Nagoya;35.1833;136.9;9197000
Tongshan;34.204;117.284;9083790
Luanda;-8.8383;13.2344;9051000
Zhoukou;33.625;114.6418;9026015
Ganzhou;25.831;114.933;8970014
Kuala Lumpur;3.1478;101.6953;8911000
Heze;35.2343;115.4796;8795939
Quanzhou;24.8744;118.6757;8782285
Johannesburg;-26.2044;28.0456;8500000
Chicago;41.8375;-87.6866;8497759
Nanjing;32.0608;118.7789;8422000
Jining;35.4151;116.5871;8357897
Hanoi;21.0;105.85;8246600
Pune;18.5203;73.8567;8231000
Fuyang;32.89;115.814;8200264
Ahmedabad;23.0225;72.5714;8009000
Bogotá;4.7111;-74.0722;7968095
Shenyang;41.8025;123.4281;7964000
Dar es Salaam;-6.8161;39.2803;7962000
Khartoum;15.6;32.5;7869000
Shangqiu;34.415;115.656;7816831
Hong Kong;22.3;114.2;7450000
Cangzhou;38.3047;116.8387;7300783
Riyadh;24.6333;46.7167;7237000
Santiago;-33.4372;-70.6506;7171000
Xingtai;37.0717;114.5048;7111106
Zhumadian;33.014;114.022;7008427
Chattogram;22.335;91.8325;7000000
Surabaya;-7.2458;112.7378;6998000
Zhanjiang;21.2701;110.3575;6981236
Bijie;27.284;105.292;6899636
Yancheng;33.3482;120.1626;6709629
Hengyang;26.894;112.572;6645243
Zunyi;27.722;107.031;6606675
Shaoyang;27.2395;111.4679;6563520
Sūrat;21.1702;72.8311;6538000
Shangrao;28.4551;117.9431;6435300
Xinyang;32.149;114.091;6234401
Madrid;40.4169;-3.7033;6211000
Baghdad;33.3153;44.3661;6183000
Maoming;21.6627;110.9255;6174050
Jieyang;23.551;116.3727;6089400
Miami;25.784;-80.2101;6080145
Singapore;1.3;103.8;5983000
Houston;29.786;-95.3885;5970127
Liaocheng;36.4559;115.9852;5952128
Huanggang;30.4537;114.8724;5882719
Dalian;38.9;121.6;5871474
Dallas;32.7935;-96.7667;5830932
Qingdao;36.0669;120.3827;5818255
Yulin;22.654;110.181;5796766
Douala;4.05;9.7;5768400
Qujing;25.491;103.796;5765775
Nangandao;35.3036;113.9268;5708191
Philadelphia;40.0077;-75.1339;5683533
Pudong;31.2347;121.5064;5681512
Toronto;43.7417;-79.3733;5647656
Zhengzhou;34.764;113.684;5621593
Dezhou;37.436;116.359;5611194
Nanchong;30.8372;106.1106;5607565
Jinan;36.6702;117.0207;5606374
Giza;29.987;31.2118;5598402
Nairobi;-1.2864;36.8172;5545000
Guadalajara;20.6767;-103.3475;5525000
Ankara;39.93;32.85;5503985
Tai’an;36.202;117.087;5472217
Langfang;39.5383;116.6835;5464087
Dazhou;31.2093;107.4678;5385422
Saint Petersburg;59.9375;30.3086;5384342
Monterrey;25.6667;-100.3;5341171
Belo Horizonte;-19.9167;-43.9333;5328000
Suzhou;33.6333;116.9683;5324476
Yongzhou;26.42;111.613;5289824
Changde;29.031;111.699;5279102
Xiangyang;32.01;112.122;5260951
Rangoon;16.795;96.16;5209541
Atlanta;33.7628;-84.422;5180179
Washington;38.9047;-77.0163;5116378
Zhaotong;27.338;103.717;5092611
Zhangzhou;24.513;117.647;5054328
Melbourne;-37.8142;144.9631;5031195
Yichun;27.816;114.417;5007702
Bozhou;33.8626;115.7742;4996844
Suqian;33.9331;118.2831;4986192
Abidjan;5.3167;-4.0333;4980000
Ji’an;27.0912;114.9668;4956600
Guilin;25.275;110.296;4931137
Pingdingshan;33.735;113.2999;4904701
Berlin;52.52;13.405;4890363
Alexandria;31.1975;29.8925;4870000
Mianyang;31.468;104.679;4868243
Sydney;-33.8678;151.21;4840600
Huanglongsi;34.795;114.345;4824016
Barcelona;41.3828;2.1769;4800000
Yuncheng;35.0267;111.007;4774508
Cape Town;-33.9253;18.4239;4770313
Changsha;28.228;112.939;4766296
Jeddah;21.5433;39.1728;4697000
Weinan;34.5206;109.471;4688744
Chenzhou;25.77;113.016;4667134
Jiangmen;22.5789;113.0815;4630300
Jiujiang;29.661;115.954;4600276
Xinpu;34.5966;119.2214;4599360
Yibin;28.752;104.643;4588804
Huaihua;27.5698;110.0016;4587594
Yangzhou;32.3912;119.4363;4559797
Taizhou;32.4567;119.9229;4512762
Kunming;25.0464;102.7094;4422686
Yiyang;28.5549;112.356;4413800
Changchun;43.897;125.326;4408154
Lu’an;31.736;116.52;4393699
Jiangguanchi;34.0244;113.8201;4379998
Meizhou;24.289;116.122;4378800
Ürümqi;43.8225;87.6125;4335017
Suzhou;31.3;120.6194;4330000
Boston;42.3188;-71.0852;4328315
İzmir;38.42;27.14;4320519
Guigang;23.112;109.599;4316262
Shantou;23.354;116.682;4312192
Kabul;34.5253;69.1783;4273156
Xiaoganzhan;30.918;113.957;4270371
Bamako;12.6392;-8.0028;4227569
Luzhou;28.871;105.442;4218427
Hefei;31.8206;117.2273;4216940
Hengshui;37.739;115.669;4212933
Fortaleza;-3.7275;-38.5275;4167996
Anqing;30.5318;117.1153;4165284
Liuzhou;24.3264;109.4281;4157934
Zhangjiakou;40.769;114.886;4118908
Zhaoqing;23.05;112.4667;4113594
Shijiazhuang;38.0425;114.51;4098243
Ningbo;29.8603;121.6245;4087523
Qiqihar;47.3549;123.9182;4067489
Phoenix;33.5722;-112.0892;4064275
Fuzhou;27.949;116.358;4047200
Chifeng;42.257;118.888;4035967
Xiaoxita;30.692;111.287;4017607
Amman;31.9497;35.9328;4007526
Chuzhou;32.256;118.333;3987054
Linfen;36.088;111.519;3976481
Qingyuan;23.682;113.056;3969473
Xianyang;34.3299;108.7088;3959842
Loudi;27.6998;111.9944;3931800
Binzhou;37.383;117.971;3928568
Zhuzhou;27.829;113.133;3902738
Taiyuan;37.8704;112.5497;3875053
Nanning;22.8167;108.3275;3837978
Harbin;45.7576;126.6409;3830000
Abuja;9.0667;7.4833;3770000
Yokohama;35.4442;139.6381;3757630
Suihua;46.654;126.969;3756167
Zaozhuang;34.8109;117.3238;3729140
Detroit;42.3834;-83.1024;3725908
Xiamen;24.4796;118.0889;3707090
Neijiang;29.5802;105.058;3702847
Montréal;45.5089;-73.5617;3675219
Fuzhou;26.0743;119.2964;3671192
Baicheng;23.903;106.619;3669400
Wuhu;31.3526;118.4331;3644420
Yulinshi;38.2858;109.7341;3634750
Medan;3.5894;98.6739;3632000
Wenzhou;27.9938;120.6993;3604446
Changzhou;31.811;119.974;3601079
Puyang;35.7627;115.0292;3598740
Jiaozuo;35.2157;113.2419;3590700
Nanchang;28.683;115.858;3576547
Seattle;47.6211;-122.3244;3561397
Ibadan;7.3964;3.9167;3552000
Casablanca;33.5333;-7.5833;3499000
Kumasi;6.7;-1.625;3490030
Deyang;31.127;104.398;3456161
Busan;35.18;129.075;3453198
Hohhot;40.842;111.749;3446100
Hechi;24.693;108.085;3417945
Algiers;36.7539;3.0589;3415811
Tangshan;39.6294;118.1739;3399231
Shiyan;32.629;110.7987;3398000
Lucknow;26.85;80.95;3382000
Mashhad;36.3264;59.5433;3372090
San Francisco;37.7558;-122.4449;3364979
Boankra;6.6944;-1.4028;3348000
Dubai;25.2631;55.2972;3331420
Anshan;41.108;122.994;3325372
Baojishi;34.363;107.238;3321853
Qinzhou;21.981;108.654;3304400
Guiyang;26.647;106.63;3299724
Bengbu;32.917;117.389;3296408
Bazhou;31.868;106.748;3283148
Suining;30.533;105.593;3252619
Wuxi;31.491;120.312;3245179
Kotla Qasim Khan;32.5833;73.75;3219375
Hanzhong;33.0664;107.0232;3211462
Putian;25.4526;119.0078;3210714
Zhenjiang;32.188;119.424;3210418
Guang’an;30.4564;106.6326;3205476
Faisalabad;31.4167;73.0911;3203846
Changzhi;36.195;113.117;3180884
Tongren;27.7316;109.1895;3168800
Leshan;29.552;103.766;3160168
Santa Cruz de la Sierra;-17.7892;-63.1975;3151676
Qinhuangdao;39.8882;119.5202;3146300
Jaipur;26.9;75.8;3073350
Xinzhou;38.416;112.734;3067501
Lanzhou;36.0606;103.8268;3067141
Wuzhou;23.4767;111.279;3061100
Athens;37.9842;23.7281;3059764
San Diego;32.8313;-117.1222;3046560
Addis Ababa;9.03;38.74;3041002
Taichung;24.1439;120.6794;3033885
Huainan;32.6314;117.0194;3033528
Guatemala City;14.6133;-90.5353;3014000
Kuwait City;29.3697;47.9783;3000000
Budapest;47.4925;19.0514;2997958
Qincheng;34.5809;105.7311;2984659
Rizhao;35.417;119.527;2968365
Quezon City;14.65;121.0475;2960048
Sanaa;15.3483;44.2064;2957000
Tashkent;41.3111;69.2797;2956384
Kyiv;50.45;30.5233;2952301
Meishan;30.0771;103.8484;2950545
Incheon;37.4833;126.6333;2936117
Birmingham;52.48;-1.9025;2919600
Ningde;26.6662;119.5477;2910000
Zhongshan;22.517;113.3925;2909633
Weihai;37.5133;122.1205;2906548
Bursa;40.1833;29.05;2901396
Minneapolis;44.9635;-93.2678;2892569
Mbuji-Mayi;-6.15;23.6;2892000
Haikou;20.0186;110.3488;2873358
Tongliao;43.654;122.243;2873168
Chaoyang;41.571;120.453;2872857
La Paz;-16.4958;-68.1333;2867504
Pyongyang;39.0167;125.7475;2863000
Tampa;27.9945;-82.4447;2861173
Shaoguan;24.811;113.597;2855131
Heyuan;23.7443;114.7002;2837686
Brasília;-15.7939;-47.8828;2817068
Omdurman;15.65;32.4833;2805396
Malang;-7.98;112.62;2795209
Stuttgart;48.7775;9.18;2787724
Daqing;46.589;125.104;2781562
Rome;41.8933;12.4828;2748109
Brooklyn;40.6501;-73.9496;2736074
Kaohsiung;22.615;120.2975;2733964
Xiangtan;27.8313;112.9454;2726181
Longyan;25.076;117.017;2723637
Baotou;40.6213;109.9532;2709378
Handan;36.601;114.487;2708015
Jinzhou;41.129;121.148;2703853
Kanpur;26.4499;80.3319;2701324
Denver;39.762;-104.8758;2687458
Nanping;26.6418;118.1774;2680645
Gāzipura;23.9889;90.375;2674697
Shanwei;22.7872;115.3756;2672819
Chaozhou;23.658;116.622;2656600
Guayaquil;-2.19;-79.8875;2650288
Weifang;36.708;119.162;2636154
Huai’an;33.551;119.113;2632788
Zibo;36.8138;118.055;2631647
Ankang;32.6854;109.029;2629906
Mogadishu;2.0392;45.3419;2610483
Munich;48.1375;11.575;2606021
Gulou;26.0865;119.298;2606000
Taipei;25.0375;121.5625;2603150
Bekasi;-6.2349;106.9923;2590257
Damascus;33.5131;36.2919;2584771
Sanming;26.2634;117.6389;2580000
Yangjiang;21.857;111.983;2555600
Jiamusi;46.8;130.319;2552097
Luohe;33.583;114.0109;2544266
Medellín;6.2308;-75.5906;2529403
Dingxi;35.608;104.592;2524097
Shaoxing;30.0511;120.5833;2521964
Yantai;37.4646;121.4478;2511053
Huizhou;23.112;114.416;2509243
Lishui;28.468;119.923;2507396
Xuanzhou;30.939;118.759;2500063
Khowrhesht;36.205;49.6872;2500000
Mirzāpur;25.146;82.569;2496970
Zigong;29.339;104.779;2489256
Hamburg;53.55;10.0;2484800
Guangyuan;32.436;105.844;2484122
Cali;3.4206;-76.5222;2471474
Huangshi;30.2011;115.039;2469079
Xining;36.6224;101.7804;2467965
Lusaka;-15.4167;28.2833;2467563
Ouagadougou;12.3686;-1.5275;2453496
Yaoundé;3.8667;11.5167;2440462
Zhuhai;22.2716;113.5769;2439585
Huludao;40.711;120.837;2434194
Baoshan;25.112;99.161;2431211
Mecca;21.4225;39.8233;2427924
Vancouver;49.25;-123.1;2426160
Lianshan;40.7523;120.828;2426000
Beirut;33.8983;35.5057;2421354
Salvador;-12.9747;-38.4767;2418005
Bucharest;44.4325;26.1039;2412530
Longba;33.3702;104.9603;2407272
Nāgpur;21.1497;79.0806;2405665
Queens;40.7498;-73.7976;2405464
Jilin;43.8519;126.5481;2396000
Tieling;42.2237;123.726;2388294
Accra;5.55;-0.2;2388000
Yunfu;22.9152;112.0445;2383350
Bekasi Kota;-6.2333;107.0;2381053
Daegu;35.8717;128.6017;2376044
Ghāziābād;28.67;77.42;2375820
Luoyang;34.6197;112.4539;2372571
Brisbane;-27.4678;153.0281;2360241
Anshun;26.2531;105.9476;2353100
Riverside;33.9381;-117.3949;2332836
Yingkou;40.625;122.219;2328582
Colombo;6.9344;79.8428;2323826
Yanjiang;30.129;104.627;2308631
Baku;40.3953;49.8822;2300500
Antananarivo;-18.91;47.525;2300000
Mudanjiang;44.5514;129.6329;2290208
Fukuoka;33.59;130.4017;2286000
Yan’an;36.65;109.494;2282581
Jincheng;35.491;112.852;2279146
Nantong;31.981;120.894;2261382
Lincang;23.884;100.089;2257991
Yuxi;24.347;102.527;2249502
Las Vegas;36.2333;-115.2654;2248047
Caracas;10.4806;-66.9036;2245744
Tangerang;-6.1703;106.6403;2237006
Laibin;23.7501;109.2212;2233900
Konya;37.8667;32.4833;2232374
Supaul;26.126;86.605;2229076
Vienna;48.2083;16.3725;2223236
Eşfahān;32.6447;51.6675;2219343
Baltimore;39.3051;-76.6144;2196524
Shengli;37.434;118.6746;2193518
Dandong;40.1167;124.3833;2188436
Qinbaling;35.7278;107.64;2179716
Gaoping;30.7824;106.1281;2174000
Awka;6.2069;7.0678;2171900
Taizhou;28.6557;121.4208;2162461
Ma’anshan;31.669;118.507;2159930
Harare;-17.8292;31.0522;2150000
Perth;-31.9559;115.8606;2141834
St. Louis;38.6359;-90.2451;2130881
Phnom Penh;11.5694;104.9211;2129371
Depok;-6.394;106.8225;2123349
Stockholm;59.3294;18.0686;2121000
Puning;23.298;116.166;2118200
Huaibei;33.956;116.798;2114276
Kowloon;22.3167;114.1833;2108419
Córdoba;-31.4167;-64.1833;2106734
Haiphong;20.8651;106.6838;2103500
Zamboanga City;6.9042;122.0761;2100000
Chongzuo;22.377;107.365;2099400
Rawalpindi;33.6;73.0333;2098231
Portland;45.5371;-122.65;2095808
Kano;12.0;8.5167;2095000
Yushan;31.322;120.985;2092496
Havana;23.1367;-82.3589;2089532
Hezhou;24.4042;111.5672;2072600
Pingliang;35.5424;106.6649;2068033
Vadodara;22.3;73.2;2065771
Manaus;-3.1189;-60.0217;2063547
Qingyang;24.7816;118.5517;2061600
San Antonio;29.4632;-98.5238;2058444
Rājkot;22.3;70.7833;2043000
Shangzhou;33.868;109.9244;2041231
Vishākhapatnam;17.7042;83.2978;2035922
Sanmenxia;34.7732;111.2004;2034872
Baicheng;45.62;122.838;2032356
Gujranwala;32.1567;74.19;2027001
Aleppo;36.2;37.16;2003671
Tijuana;32.525;-117.0333;2002000
Bamenda;5.9614;10.1517;2000000
Minsk;53.9;27.5667;1995471
Indore;22.7167;75.8472;1994397
Karaj;35.8272;50.9489;1973470
Kananga;-5.897;22.4488;1971704
Peshawar;34.0144;71.5675;1970042
Sapporo;43.0619;141.3544;1959313
Sacramento;38.5677;-121.4685;1957738
Tilburg;51.55;5.0833;1944588
Pingxiang;27.659;113.887;1933200
Ecatepec;19.6097;-99.06;1929926
Almaty;43.24;76.915;1916822
Austin;30.3005;-97.7522;1905945
Yinchuan;38.485;106.225;1901793
Santos;-23.9369;-46.325;1897551
Blantyre;-15.7861;35.0058;1895973
Thāne;19.1972;72.9722;1886941
Orlando;28.4773;-81.337;1882705
Tainan;22.9833;120.1833;1874686
Xiping;40.082;113.2981;1873000
Multan;30.1978;71.4697;1871843
Santa Cruz;-17.8;-63.1833;1867673
Port Harcourt;4.8242;7.0336;1865000
Jixi;45.295;130.969;1862165
Fushun;41.881;123.957;1861372
Warsaw;52.23;21.0111;1860281
Beihai;21.481;109.12;1853227
Fuxin;42.022;121.67;1819339
Wuwei;37.929;102.638;1815059
Siping;43.1668;124.3506;1814733
San Juan;18.3985;-66.061;1814587
Mersin;36.8;34.6333;1814468
Bhopāl;23.2599;77.4126;1798218
Mosul;36.34;43.13;1792000
Lubumbashi;-11.6647;27.4794;1786397
Davao;7.07;125.6;1776949
Curitiba;-25.4297;-49.2711;1773733
San Jose;37.3012;-121.848;1771413
Shuyangzha;34.1299;118.7734;1770000
Adana;37.0;35.3213;1765981
Quito;-0.22;-78.5125;1763275
Pittsburgh;40.4397;-79.9763;1749091
Brazzaville;-4.2694;15.2711;1733263
Hyderabad City;25.3792;68.3683;1732693
Diyarbakır;37.91;40.24;1732396
Indianapolis;39.7771;-86.1458;1729849
Pimpri-Chinchwad;18.6186;73.8037;1727692
Masqaţ;23.5889;58.4083;1720000
Montevideo;-34.8836;-56.1819;1719453
Shuozhou;39.3317;112.4329;1714857
Manhattan;40.7834;-73.9662;1694263
Cincinnati;39.1413;-84.506;1692702
Kansas City;39.1238;-94.5541;1689556
Patna;25.594;85.1376;1684222
Tegucigalpa;14.1058;-87.2047;1682725
Kampala;0.3136;32.5811;1680600
Cleveland;41.4764;-81.6805;1680247
Sanzhou;30.82;108.4;1680000
Changshu;31.656;120.753;1677050
Heihe;50.2401;127.521;1673899
Conakry;9.5092;-13.7122;1667864
Ximeicun;24.9612;118.3849;1663542
Caloocan City;14.65;120.97;1661584
Masvingo;-20.0744;30.8328;1638528
Zhongli;24.965;121.2168;1632616
Novosibirsk;55.05;82.95;1625631
Bilāspur;22.09;82.15;1625502
Semarang;-6.99;110.4225;1621384
Jingdezhen;29.2917;117.1986;1618979
Ludhiāna;30.91;75.85;1618879
Liaoyang;41.279;123.176;1604580
Chengtangcun;35.0833;117.15;1603659
Rājshāhi;24.3667;88.6;1600000
Balandougou;13.3558;-9.5517;1596882
Jiangyin;31.839;120.295;1595138
Valencia;39.47;-0.3764;1595000
Āgra;27.18;78.02;1585704
León de los Aldama;21.1167;-101.6833;1579803
Puebla;19.0333;-98.1833;1576259
Columbus;39.9862;-82.9855;1572546
Yopougon;5.3167;-4.0667;1571065
Hebi;35.748;114.297;1569208
Shīrāz;29.61;52.5425;1565572
Madurai;9.9252;78.1198;1561129
Huzhou;30.8925;120.0875;1558826
Tabrīz;38.0814;46.3006;1558693
Jamshedpur;22.7925;86.1842;1558000
Maracaibo;10.6333;-71.6333;1551539
Sofia;42.7;23.33;1547779
San José;9.9325;-84.08;1543000
Prayagraj;25.4358;81.8464;1536218
Palembang;-2.9861;104.7556;1535952
Kawasaki;35.5167;139.7;1531646
Kōbe;34.69;135.1956;1521707
Jiaxing;30.747;120.756;1518654
Kigali;-1.9439;30.0594;1518632
Zhangjiajie;29.117;110.479;1517027
Baiyin;36.5451;104.1389;1512110
Guiping;23.4;110.0833;1511011
Lianjiang;21.7333;110.2833;1509400
Jianguang;28.1958;115.7833;1507402
Yucheng;30.01;103.0415;1507258
Xushan;30.1667;121.2333;1502000
Panama City;8.9833;-79.5167;1500189
Nneyi-Umuleri;6.3333;6.8333;1500000
Leizhou;20.9143;110.0967;1494700
Gwangju;35.1653;126.8486;1490092
Katako-Kombe;-3.4;24.42;1488922
Recife;-8.05;-34.9;1488920
Nāsik;19.9975;73.7898;1486053
Valencia;10.1833;-68.0;1484430
Onitsha;6.1667;6.7833;1483000
Abu Dhabi;24.4667;54.3667;1483000
Zapopan;20.7167;-103.4;1476491
Daejeon;36.35;127.385;1475221
Bronx;40.8501;-73.8662;1472654
Yekaterinburg;56.8356;60.6128;1468833
Huazhou;32.688;112.087;1468061
Jinhua;29.079;119.647;1463990
Kyōto;35.0117;135.7683;1463723
Amsterdam;52.3728;4.8936;1459402
Pizhou;34.398;117.89;1458038
Kismaayo;-0.3581;42.5453;1458000
Yangshe;31.8767;120.556;1447600
Virginia Beach;36.7335;-76.0435;1443020
Dakar;14.6928;-17.4467;1438725
Goiânia;-16.6667;-49.25;1437237
Charlotte;35.2083;-80.8303;1427444
Rui’an;27.7833;120.625;1424667
Muscat;23.6139;58.5922;1421409
Kharkiv;49.9925;36.2311;1421125
Wenling;28.3667;121.3667;1416199
Gaozhou;21.9244;110.8422;1414100
Farīdābād;28.4211;77.3078;1414050
Medina;24.47;39.61;1411599
Khulna;22.8167;89.55;1400689
Ulaanbaatar;47.9203;106.9172;1396288
Fuqing;25.7167;119.3833;1390487
Kayseri;38.7225;35.4875;1389680
Tel Aviv-Yafo;32.08;34.78;1388400
Wuzhong;37.9978;106.1986;1382713
Pingdu;36.7769;119.9884;1378900
Sangereng;-6.2889;106.7181;1378466
Yangquan;37.8571;113.5804;1368502
Samsun;41.2903;36.3336;1368488
Yutan;28.278;112.552;1368117
Copenhagen;55.6761;12.5683;1366301
Helsinki;60.1708;24.9375;1360075
Prague;50.0875;14.4214;1357326
Milan;45.4669;9.19;1354196
Auckland;-36.8406;174.74;1346091
Santiago;19.4572;-70.6889;1343423
Chizhou;30.6654;117.4916;1342764
Makassar;-5.1619;119.4362;1338663
Liangshi;27.26;111.7442;1335900
Porto Alegre;-30.0331;-51.23;1332570
Huangshan;29.7149;118.3376;1330565
Barranquilla;10.9833;-74.8019;1326588
Al Başrah;30.515;47.81;1326564
Benxi;41.4868;123.685;1326018
Saitama;35.8614;139.6456;1325843
Guarulhos;-23.4628;-46.5328;1324781
Juárez;31.745;-106.485;1321004
Mandalay;21.9831;96.0844;1319452
Xintai;35.909;117.768;1315942
Wusong;30.9333;117.7667;1311726
Calgary;51.05;-114.0667;1306784
Meerut;28.98;77.71;1305429
Yushu;44.826;126.55;1304436
Belém;-1.4558;-48.5039;1303389
Kuaidamao;41.7283;125.9397;1302778
Huazhou;21.664;110.6396;1302100
Baishan;41.944;126.4147;1296127
Adelaide;-34.9275;138.6;1295714
Haicheng;40.8824;122.6852;1293877
Milwaukee;43.0642;-87.9675;1290940
Providence;41.823;-71.4187;1290271
Jacksonville;30.3322;-81.6749;1288298
Yicheng;31.36;119.815;1285785
Cacuaco;-8.8053;13.2444;1279488
Porto;41.1621;-8.622;1278210
Rosario;-32.9575;-60.6394;1276000
Canagatan;18.0;121.8;1273219
Soweto;-26.2678;27.8585;1271628
Bagam;1.13;104.0531;1269820
Jabalpur;23.1667;79.9333;1267564
Rucheng;32.246;120.591;1267066
Huaiyin;33.5819;119.028;1264000
Dublin;53.35;-6.2603;1263219
Kazan;55.7964;49.1089;1259173
Dayan;26.8552;100.2259;1253878
Shaoyang;32.912;119.8526;1253548
Balıkesir;39.6333;27.8833;1250610
Comayagüela;14.098;-87.21;1250000
Laiwu;36.1833;117.6667;1248636
Sharjah;25.3575;55.3908;1247749
Jingling;30.664;113.167;1247400
Kalyān;19.2502;73.1602;1246381
Nizhniy Novgorod;56.3269;44.0075;1244254
Yongcheng;33.9299;116.45;1240382
Sumedang;-6.84;107.9208;1240000
Cần Thơ;10.0333;105.7833;1237300
Brussels;50.8467;4.3525;1235192
Suwon;37.2667;127.0167;1234300
Yiwu;29.3069;120.0753;1234015
Beidao;34.602;105.918;1225000
Vasai-Virar;19.3607;72.7956;1221233
Xiangshui;26.5964;104.8314;1221000
Dadukou;26.5824;101.7184;1214121
Campinas;-22.9058;-47.0608;1213792
Lingcheng;22.7;110.35;1211637
Shuangyashan;46.6762;131.1416;1208803
Mombasa;-4.05;39.6667;1208333
Najafgarh;28.6092;76.9798;1203180
Xinyu;27.8186;114.9167;1202499
Qom;34.64;50.8764;1201158
Hargeysa;9.5631;44.0675;1200000
Baidoa;3.1167;43.65;1200000
Zhangye;38.9248;100.4499;1199515
Vārānasi;25.3189;83.0128;1198491
Hiroshima;34.3914;132.4519;1198021
Chiang Mai;18.7953;98.9986;1198000
Belgrade;44.82;20.46;1197714
Maiduguri;11.8333;13.15;1197497
Chelyabinsk;55.1547;61.3758;1196680
Batam Centre;1.13;104.0531;1196396
Rongcheng;26.218;104.103;1189813
Mbandaka;0.0478;18.2558;1187837
Doha;25.2867;51.5333;1186023
Ahvāz;31.3047;48.6783;1184788
Shymkent;42.3167;69.5958;1184113
Tripoli;32.8872;13.1914;1183000
Srīnagar;34.09;74.79;1180570
Nashville;36.1715;-86.7842;1177657
Liaoyuan;42.888;125.1447;1176239
Aurangābād;19.88;75.32;1175116
Cilacap;-7.7167;109.017;1174964
Salt Lake City;40.7776;-111.9311;1173879
Omsk;54.9833;73.3667;1172070
Pikine;14.75;-17.4;1170791
Samara;53.2028;50.1408;1169719
Guankou;28.1637;113.6433;1168056
Bandar Lampung;-5.45;105.2667;1166761
Raleigh;35.8324;-78.6429;1163152
Lianyuan;27.692;111.664;1162928
Rongcheng;29.8402;112.9048;1162770
Dhanbād;23.7998;86.4305;1162472
Nay Pyi Taw;19.7475;96.115;1160242
Aba;5.1167;7.3667;1160000
Kaiyuan;36.0193;113.86;1160000
Zhuji;29.7167;120.2333;1157938
Yingtan;28.2721;117.0395;1154223
Edmonton;53.5344;-113.4903;1151635
Leiyang;26.4223;112.8598;1151554
Ulsan;35.55;129.3167;1150116
Yichun;47.728;128.841;1148126
Benin City;6.3333;5.6222;1147188
Bujumbura;-3.3833;29.3667;1143202
Guyuan;36.01;106.257;1142142
Xiantao;30.328;113.443;1140100
Rostov;47.2225;39.71;1137704
Maputo;-25.9667;32.5833;1133200
Bukavu;-2.5;28.8667;1133000
Amritsar;31.64;74.86;1132383
Shagamu;6.8333;3.65;1132270
Yingchuan;34.1511;113.4733;1131896
Alīgarh;27.88;78.08;1131160
Santo Domingo;18.4667;-69.95;1128678
Bogor;-6.5966;106.7972;1127408
Bishkek;42.8747;74.6122;1120827
Tbilisi;41.7225;44.7925;1118035
Guwāhāti;26.1722;91.7458;1116267
Ufa;54.7261;55.9475;1115560
Fès;34.0433;-5.0033;1112072
Mwanza;-2.5167;32.9;1104521
Biên Hòa;10.95;106.8167;1104000
Mexicali;32.6633;-115.4678;1102342
Sevilla;37.39;-5.99;1100000
Ikare;7.5167;5.75;1099931
Dongtai;32.795;120.519;1098100
Dingzhou;38.516;114.99;1095986
Xibeijie;39.7334;98.4943;1095947
Tamale;9.4075;-0.8533;1095808
Yuyao;30.05;121.15;1095000
Hanchuan;30.652;113.8274;1092700
Gongzhuling;43.5053;124.8224;1092692
N’Djamena;12.11;15.05;1092066
Ubungo;-6.7889;39.2056;1086912
Cologne;50.9364;6.9528;1084831
Krasnoyarsk;56.0089;92.8719;1083865
Zhufeng;36.0;119.4167;1081960
Ezhou;30.3914;114.8949;1079353
Astana;51.1472;71.4222;1078362
Nezahualcóyotl;19.4081;-99.0186;1077208
Nouakchott;18.0858;-15.9785;1077169
Hāora;22.58;88.3294;1077075
Tongjin;37.2333;127.2;1076369
Xiashi;30.5333;120.6833;1076199
Yerevan;40.1814;44.5144;1075800
Rānchi;23.36;85.33;1073440
Richmond;37.5295;-77.4756;1073223
Ciudad Nezahualcóyotl;19.4006;-99.0148;1072676
Gwalior;26.2124;78.1772;1069276
Ottawa;45.4247;-75.695;1068821
Zhongwei;37.5002;105.1968;1067336
Oslo;59.9133;10.7389;1064235
Goyang;37.65;126.8;1061929
Sendai;38.2682;140.8694;1061177
Mizhou;35.99;119.3801;1060000
Xishan;27.6461;113.497;1060000
Barquisimeto;10.0636;-69.3347;1059092
Hegang;47.3501;130.298;1058665
Chandīgarh;30.75;76.78;1055450
Voronezh;51.6717;39.2106;1051995
Managua;12.1364;-86.2514;1051236
Haldwāni;29.22;79.52;1050000
Vijayavāda;16.5193;80.6305;1048240
Perm;58.0;56.3167;1048005
Fangchenggang;21.6867;108.3547;1046068
Jiancheng;30.3931;104.5465;1045900
Cazenga;-8.8214;13.2911;1045722
Kisangani;0.5167;25.2;1040000
Shouguang;36.857;118.791;1039205
Memphis;35.1087;-89.9663;1037998
São Luís;-2.5283;-44.3044;1037775
Jodhpur;26.28;73.02;1033918
Matola;-25.9667;32.4667;1032197
Ogbomoso;8.1333;4.25;1032000
Sanya;18.2533;109.5036;1031396
Rangapukur;25.56;89.25;1031388
Ashgabat;37.9375;58.38;1030063
Wutong;30.6333;120.5333;1029754
Linhai;28.85;121.1167;1028813
Denizli;37.7833;29.0964;1027782
Niamey;13.515;2.1175;1026848
Shubrā al Khaymah;30.1286;31.2422;1025569
Wafangdian;39.6271;121.9796;1024876
Zhongxiang;31.169;112.5853;1022514
Monrovia;6.3133;-10.8014;1021762
San Cristóbal;7.7667;-72.2333;1015623
Islamabad;33.6931;73.0639;1014825
Xinyi;22.3549;110.9468;1013900
Thủ Đức;10.8266;106.7609;1013795
Morelia;19.7683;-101.1894;1011704
Odesa;46.4775;30.7326;1010537
Raipur;21.2444;81.6306;1010087
Changwon;35.2708;128.6631;1009998
Arequipa;-16.4;-71.5333;1008290
Volgograd;48.7086;44.5147;1004763
Zaoyang;32.129;112.772;1004741
Xingyi;25.092;104.8955;1004132
Shuizhai;33.4433;114.8994;1003698
Kota;25.18;75.83;1001694
Quetta;30.1833;67.0;1001205
Quảng Hà;15.9333;108.2667;1000000
Domaa-Ahenkro;7.2833;-2.8833;1000000
Bareilly;28.364;79.415;1000000
Oklahoma City;35.4676;-97.5136;998806
Bordeaux;44.84;-0.58;994920
Xingcheng;24.1347;115.73;993000
Taixing;32.159;120.029;990200
Xinhualu;34.3964;113.7402;989900
Lilongwe;-13.9833;33.7833;989318
Port-au-Prince;18.5333;-72.3333;987310
Yingcheng;24.21;113.401;986400
Al Mijlad;11.0339;27.74;985000
Luocheng;22.7689;111.5697;984100
Pekanbaru;0.5092;101.4453;983356
Natal;-6.9838;-60.2699;980588
Chiba;35.6073;140.1064;975014
Kirkuk;35.4667;44.3167;975000
Hartford;41.7661;-72.6834;974684
Huilong;31.87;121.703;972525
Wuchuan;21.441;110.779;972400
Dnipro;48.4675;35.04;968502
Nārāyanganj;23.62;90.5;967951
Gqeberha;-33.9581;25.6;967677
Málaga;36.7194;-4.42;967250
Marrakech;31.63;-8.0089;966987
Cebu City;10.32;123.75;964169
Louisville;38.1663;-85.6485;963812
Asmara;15.3228;38.925;963000
Coimbatore;11.0167;76.9556;959823
Maceió;-9.6658;-35.735;957916
Nada;19.5209;109.5808;954259
Taishan;22.2486;112.785;953900
Teresina;-5.0949;-42.8042;953172
Solāpur;17.68;75.92;951558
Freetown;8.4844;-13.2344;951000
Santo Domingo Este;18.4855;-69.8734;948855
Krasnodar;45.0333;38.9667;948827
Vientiane;17.98;102.63;948487
Tangier;35.7767;-5.8039;947952
Anqiu;36.478;119.219;947723
Kermānshāh;34.3325;47.0933;946651
Feicheng;36.1861;116.7719;946627
Kibanseke Première;-4.4419;15.395;946372
Seberang Jaya;5.4083;100.3695;946092
Buffalo;42.9018;-78.8487;944589
Hubli;15.3502;75.1376;943788
El Alto;-16.5047;-68.1633;943000
Çankaya;39.9244;32.8856;942553
Hwasu-dong;37.1997;126.8314;941489
Setagaya;35.6466;139.6532;940071
Keçiören;40.0;32.8667;939279
Jerusalem;31.7789;35.2256;936425
Khartoum North;15.6333;32.6333;936349
Meishan;34.1736;112.839;936000
Mushin;6.5333;3.35;935400
Trujillo;-8.112;-79.0288;935147
Kitakyūshū;33.8833;130.8833;935084
Aguascalientes;21.876;-102.296;934424
New Orleans;30.0687;-89.9288;932759
Fort Worth;32.7817;-97.3474;924663
Taihe;30.8706;105.3784;924531
Riga;56.9489;24.1064;920643
Xin’an;34.286;118.355;920628
Taihecun;45.771;131.003;920471
Kashgar;39.4681;75.9938;920000
Sŏngnam;37.4333;127.15;918771
Trichinopoly;10.7903;78.7047;916857
Cartagena;10.4;-75.5;914552
Qingzhou;36.6853;118.4796;914047
Naples;40.8333;14.25;913462
Santiago del Estero;-27.7833;-64.2667;911506
Naucalpan de Juárez;19.4753;-99.2378;910407
Daye;30.0961;114.9804;909724
Hengzhou;22.6799;109.2614;909400
Padang;-0.95;100.3531;909040
Bridgeport;41.1918;-73.1954;908251
Owerri;5.485;7.035;908109
Zhuanghe;39.681;122.967;905852
Bobo-Dioulasso;11.1833;-4.2833;903887
Ad Dammām;26.4333;50.1;903312
Quzhou;28.9702;118.8593;902767
Donetsk;48.0028;37.8053;901645
Ashmūn;30.2941;31.0342;901191
Bunia;1.5667;30.25;900666
Jiaozhou;36.2647;120.0334;900500
Campo Grande;-20.4839;-54.615;897938
Wuchang;44.924;127.158;897705
São Gonçalo;-22.8269;-43.0539;896744
Bucaramanga;7.1333;-73.0;893040
Mérida;20.97;-89.62;892363
Yangchun;22.1704;111.7916;891800
Osmangazi;40.1983;29.06;891250
Esenyurt;41.0342;28.68;891120
Morādābād;28.8319;78.7764;889810
Bangui;4.3733;18.5628;889231
Abeokuta;7.1608;3.3483;888924
Cancún;21.1606;-86.8475;888797
Antipolo;14.5842;121.1763;887399
Dengtalu;36.1386;114.1066;887000
Taguig City;14.52;121.05;886722
Tabūk;28.3972;36.5789;886036
Zhoushan;29.9856;122.2074;882932
Tucson;32.1541;-110.8787;878320
As Sulaymānīyah;35.5572;45.4356;878146
Chihuahua;28.6369;-106.0769;878062
Klang;3.0333;101.45;878000
Tiruppūr;11.1085;77.3411;877778
Gurgaon;28.456;77.029;876824
Ar Ramādī;33.4258;43.2992;874543
Hai’an;32.535;120.563;874334
Laiyang;36.9758;120.7136;874127
Barinas;8.6333;-70.2;873962
Jalandhar;31.2569;75.4432;873725
Marseille;43.2964;5.37;873076
Kaifeng Chengguanzhen;34.8519;114.3481;872000
Eskişehir;39.7767;30.5206;871187
Gaomi;36.3833;119.75;868715
Lhasa;29.6534;91.1719;867891
Ipoh;4.5972;101.075;866772
El Paso;31.8476;-106.43;865270
Saltillo;25.4231;-100.9919;864431
Dushanbe;38.5367;68.78;863400
Ikeja;6.6;3.35;861300
El Dorado;24.808;-107.397;858638
Cochabamba;-17.3883;-66.1597;856198
Portsmouth;50.8058;-1.0872;855679
Tyumen;57.15;65.5333;855600
Southampton;50.9025;-1.4042;855569
Hermosillo;29.0989;-110.9542;855563
Wuxi;26.58;111.841;853197
Leping;28.978;117.152;852800
Cheongju;36.6333;127.4833;852018
Shache;38.4261;77.25;851374
Sale;34.0333;-6.8;850403
Hailun;47.4667;126.9667;850000
Macheng;31.173;115.008;849090
Akure;7.25;5.195;847903
Ilorin;8.5;4.55;847582
Erbil;36.1912;44.0092;846000
Kathmandu;27.71;85.32;845767
Saratov;51.5333;46.0167;845300
Iguaçu;-22.74;-43.47;844583
Zijinglu;34.7667;112.9667;843900
Turin;45.0792;7.6761;841600
Yuci;37.6823;112.7281;840000
Dehui;44.535;125.703;839786
Pietermaritzburg;-29.6167;30.3833;839327
Durban;-29.8833;31.05;838634
Bhubaneshwar;20.2644;85.8281;837737
Denpasar;-8.65;115.2167;834881
Tongchuan;34.897;108.945;834437
João Pessoa;-7.12;-34.88;833932
Samarinda;-0.5;117.1378;831460
Chengxiang;31.564;121.174;831113
Rongjiawan;29.1409;113.1087;826000
Weichanglu;37.1792;119.9333;824708
Sakai;34.5733;135.4831;824408
Renqiu;38.686;116.084;822455
Omaha;41.2627;-96.0529;821345
Xindi;29.827;113.476;819446
Wu’an;36.697;114.204;819000
Qingping;34.539;113.391;817000
Gaoyou;32.7847;119.4432;811800
São Bernardo do Campo;-23.7;-46.55;810729
Yiyang;26.4221;112.3999;810447
Hejian;38.4466;116.0995;810306
Puxi;35.2125;114.735;809535
Bhayandar;19.29;72.85;809378
Androtsy;-24.1;46.3;809313
Culiacán;24.8069;-107.3939;808416
Cúcuta;7.8942;-72.5039;806378
Danyang;32.0;119.586;806300
Dongyang;29.2667;120.2167;804398
Kraków;50.0614;19.9372;804237
Pasig City;14.5605;121.0765;803159
Thessaloníki;40.6403;22.9347;802572
Querétaro;20.5875;-100.3928;801940
Palermo;2.8917;-75.4375;800000
Xigazê;29.25;88.8833;798153
Qamdo;31.143;97.17;798067
McAllen;26.2252;-98.2467;797341
Libreville;0.3903;9.4542;797003
Seyhan;36.9831;35.3328;795012
San Pedro Sula;15.5;-88.0333;793835
Niigata;37.9161;139.0364;790646
Hempstead;40.6629;-73.6089;789763
Leeds;53.7975;-1.5436;789194
Hamamatsu;34.7108;137.7275;788211
Pointe-Noire;-4.7975;11.8503;787799
Xiangxiang;27.7186;112.5502;787216
Birmingham;33.5279;-86.7971;782111
Chaohucun;31.6244;117.8902;782000
Bucheon;37.5;126.7833;781119
Lubango;-14.9167;13.5;776249
Homs;34.7308;36.7094;775404
Bilbao;43.2569;-2.9236;775000
Zouping;36.863;117.743;774517
Frankfurt;50.1106;8.6822;773068
San Luis Potosí;22.1511;-100.9761;772828
Dali;25.6065;100.2676;771128
Fuyang;30.0553;119.95;771000
Khŭjand;40.2833;69.6333;770000
Korla;41.7259;86.1746;770000
Albuquerque;35.1054;-106.6465;769986
Hamhŭng;39.9167;127.5333;768551
Erzurum;39.9086;41.2769;767848
Zagreb;45.8131;15.9775;767131
Al ‘Ayn;24.2075;55.7447;766936
Songzi;30.174;111.757;765911
Patiāla;30.34;76.38;763280
Laixi;36.8667;120.5333;762900
Zhongba;31.771;104.755;762140
Bahawalpur;29.3956;71.6836;762111
Qingnian;36.8494;115.7061;760781
Kaduna;10.5167;7.4333;760084
Winnipeg;49.8844;-97.1464;758515
Trabzon;41.005;39.7225;758237
Guangshui;31.617;113.826;755910
Baardheere;2.3333;42.2833;755500
Shīshgarh;28.72;79.32;753815
Nerima;35.7356;139.6517;752608
Sizhan;38.9846;106.3828;751389
Ciudad Guayana;8.3667;-62.65;751331
Natal;-5.7833;-35.2;751300
Lichuan;30.291;108.9364;750670
Licheng;31.4306;119.4788;749522
Santo André;-23.6572;-46.5333;748919
Ōta-ku;35.5614;139.7161;748081
Gaalkacyo;6.7697;47.4308;745000
Thiruvananthapuram;8.5241;76.9366;743691
Osasco;-23.5328;-46.7919;743432
Nampula;-15.1167;39.2667;743000
Pretoria;-25.7461;28.1881;741651
Kyaukse;21.6131;96.1303;741071
Chengguan;35.4623;113.8054;740435
Nehe;48.4833;124.8833;740000
Cabinda;-5.56;12.19;739182
Kumamoto;32.8031;130.7078;738385
Kermān;30.2911;57.0678;738374
Zunhua;40.189;117.966;737011
Orūmīyeh;37.5439;45.0647;736224
Wugang;26.7266;110.6319;734870
Bağcılar;41.0344;28.8564;734369
Quebec City;46.8139;-71.2081;733156
Shuangqiao;35.067;112.602;733000
Umraniye;41.0311;29.1081;732379
Yanggok;37.6333;127.2167;732376
Tshikapa;-6.4167;20.8;732000
Tulsa;36.1283;-95.9042;731743
Osogbo;7.7667;4.5667;731000
Comodoro Rivadavia;-45.8647;-67.4808;730266
Nottingham;52.9561;-1.1512;729977
Hamilton;43.2567;-79.8692;729560
Langzhong;31.558;106.005;728935
Cagayan de Oro;8.48;124.65;728402
Qian’an;39.999;118.701;728160
Fresno;36.783;-119.7939;725276
An Najaf;32.0;44.33;724700
Cencheng;22.9167;111.0;724364
Sorocaba;-23.5017;-47.4581;723574
Guli;28.9;120.0333;723490
Sagamihara;35.5667;139.3667;722973
Pīshbar;33.3886;59.9789;720207
Okayama;34.65;133.9167;720043
Anlu;31.2667;113.6667;720000
Concepción;-36.8282;-73.0514;719944
Mississauga;43.6;-79.65;717961
Changsha;22.3773;112.6982;717700
Songyang;34.4553;113.0253;717400
Lviv;49.8425;24.0322;717273
Shihezi;44.3054;86.0804;717000
Vilnius;54.6872;25.28;716856
Marka;1.7133;44.7656;716361
Enugu;6.4528;7.5111;715774
Valenzuela;14.7;120.98;714978
Yatou;37.1653;122.4867;714211
Uberlândia;-18.9231;-48.2886;713232
Xichang;27.8944;102.2644;712434
Zaporizhzhia;47.85;35.1175;710052
Bhiwandi;19.2967;73.0631;709665
George Town;5.4144;100.3292;708127
Bristol;51.4536;-2.5975;707412
Charleston;32.8168;-79.9687;706884
Sahāranpur;29.964;77.546;705478
Dashiqiao;40.6167;122.5167;704891
Yenimahalle;39.9719;32.8119;704652
Warangal;17.9689;79.5941;704570
Nampo;38.7333;125.4;703317
Dasmariñas;14.33;120.94;703141
Jaboatão;-8.1803;-35.0014;702621
Chisinau;47.0228;28.8353;702300
Shiliguri;26.71;88.43;701489
Boosaaso;11.2886;49.1819;700906
Port Moresby;-9.4789;147.1494;700000
Latakia;35.5167;35.7833;700000
Rochester;43.168;-77.6162;699921
Ribeirão Prêto;-21.1783;-47.8067;698259
Edogawa;35.7;139.8833;697932
São José dos Campos;-23.1789;-45.8869;697428
General Santos;6.12;125.17;697315
Ḩamāh;35.1333;36.75;696863
Qianxi;27.0087;106.0323;695947
Bauchi;10.3158;9.8442;693700
Pendik;40.8747;29.235;693599
Salem;11.65;78.15;693236
Shishi;24.7167;118.7;693000
Sinnūris;29.4072;30.8667;692701
Cocody;5.35;-3.9667;692583
Miluo Chengguanzhen;28.761;113.16;692080
Lokoja;7.8019;6.7442;692050
Guadalupe;25.6775;-100.2597;691931
Gaizhou;40.4;122.35;691595
Karbalā’;32.6167;44.0333;690100
Borvāyeh-ye Al Bū ‘Azīz;31.6283;48.6147;690000
City of Parañaque;14.5008;120.9915;689992
Leling;37.73;117.232;689867
Mamak;39.9422;32.9231;687535
Jianshe;34.2137;113.7629;687130
Tolyatti;53.5089;49.4222;685619
Shizuoka;34.9756;138.3828;685589
Jingcheng;32.009;120.263;684360
Agege;6.6219;3.3258;683600
Mar del Plata;-38.0;-57.55;682605
Zaragoza;41.65;-0.8833;682513
Adachi;35.7833;139.8;682326
Xinmin;41.997;122.823;680000
Rasht;37.2744;49.5889;679995
Shanhu;29.6;120.8167;679762
Zhongshu;27.7919;106.4013;679624
Cotonou;6.3667;2.4333;679012
Tasikmalaya;-7.3161;108.1975;678027
Kochi;9.9312;76.2673;677381
Soledad;10.9167;-74.75;676014
Dhūlia;20.8997;74.7697;675000
Acapulco de Juárez;16.8636;-99.8825;673478
Gorakhpur;26.7637;83.4039;673446
Bahār;34.9028;48.4425;673405
Kumul;42.8193;93.5151;673383
Wrocław;51.11;17.0325;672929
Murcia;37.9861;-1.1303;672773
Pinghu;30.7005;121.0104;671834
Guankou;30.988;103.647;671200
Łódź;51.7769;19.4547;670642
Guntūr;16.3008;80.4428;670073
Bhāngar;22.58;88.42;670000
Dayton;39.7805;-84.2003;668825
Ch’ŏngjin;41.7833;129.7667;667929
Qionghu;28.945;112.598;667104
Zhaodong;46.051;125.962;666532
Puyang Chengguanzhen;35.7004;114.98;666322
Bulawayo;-20.17;28.58;665940
Huambo;-12.7767;15.7347;665564
Aracaju;-10.9167;-37.05;664908
Bacoor;14.4624;120.9645;664625
Wenchang;31.054;116.9507;664455
Rotterdam;51.92;4.48;664311
Tlaquepaque;20.6167;-103.3167;664193
Villavicencio;4.15;-73.6333;664148
Shulan;44.4059;126.9655;663403
Makhachkala;42.9667;47.4833;662600
Banjarmasin;-3.32;114.5925;662230
Narela;28.8527;77.0929;661994
Catia La Mar;10.6;-67.0333;661897
Al Hufūf;25.3833;49.5833;660788
Jalingo;8.9;11.3667;660213
Sargodha;32.0836;72.6711;659862
Karaikandi;24.8309;92.6143;659260
Bouaké;7.6833;-5.0167;659233
Lingbao Chengguanzhen;34.5176;110.8942;656571
Brampton;43.6833;-79.7667;656480
Abomey-Calavi;6.4486;2.3556;655965
Durango;24.025;-104.6675;654876
Cape Coral;26.6443;-81.9957;654405
Tondo;14.617;120.967;654220
Dayrūţ;27.5667;30.8167;653847
Tlalnepantla;19.5367;-99.1947;653410
Ansan;37.3167;126.8333;652800
Xiping;25.6005;103.8166;652604
Huế;16.4667;107.5792;652572
Sanhe;40.0167;117.0833;652042
San Jose del Monte;14.8139;121.0453;651813
Ch’ŏnan;36.81;127.1475;651661
Cuiabá;-15.5958;-56.0969;650912
Jieshou;33.257;115.3746;650870
Ērer Sātā;9.5667;41.3833;649000
Selçuklu;37.8814;32.4922;648850
Suohe;34.7833;113.35;648700
Guixi;28.2925;117.2454;647240
Izhevsk;56.8333;53.1833;646277
Honchō;35.6946;139.9826;644668
Wuxue;29.844;115.561;644247
Jaboatão dos Guararapes;-8.1122;-35.0156;643759
Yıldırım;40.11;29.0821;643681
Bhāvnagar;21.76;72.15;643365
Jinghong;22.009;100.797;642737
Tengyue;25.0167;98.4833;642481
Mission Viejo;33.6096;-117.6551;642211
Ruiming;25.886;116.027;640600
Qufu;35.5819;116.9862;640498
Sha Tin;22.3802;114.1898;640000
Petaling Jaya;3.0972;101.6444;638516
Colorado Springs;38.8674;-104.7605;638194
Noida;28.57;77.32;637272
Xinshi;31.1333;113.1167;636776
Baton Rouge;30.442;-91.1311;635671
Manama;26.225;50.5775;635000
Las Palmas;28.1258;-15.4353;635000
Chak Forty-one;31.0167;73.85;634236
Jin’e;29.3394;105.2875;633210
Benghazi;32.1167;20.0667;631555
Chuxiong;25.033;101.5459;631530
Barnaul;53.3486;83.7764;631124
Palermo;38.1111;13.3517;630167
Makati City;14.5567;121.0214;629616
Düsseldorf;51.2333;6.7833;629047
Allentown;40.5961;-75.4756;627863
Xinxing;39.8667;124.15;627475
Ţūkh;30.3539;31.2007;627290
Glasgow;55.8611;-4.25;626410
Namangan;41.0011;71.6683;626120
Bazal’tove;50.6765;26.16;625543
Al Qaţīf;26.556;49.996;625092
Bhilai;21.21;81.38;624700
Ulyanovsk;54.3167;48.3667;624518
Mangalore;12.8681;74.8425;623841
Kaihua;23.387;104.233;623772
Irkutsk;52.2833;104.2833;623736
Meilan;19.999;110.403;623667
Bazhou;39.1333;116.3833;622975
Ogden;41.2279;-111.9682;622918
Turpan;42.9512;89.1895;622903
Jos;9.9167;8.8903;622802
Al Manşūrah;31.05;31.3833;621953
Contagem;-19.9319;-44.0539;621865
Jambi;-1.59;103.61;619553
Ḩalwān;29.8453;31.3333;619293
Provo;40.2457;-111.6457;619218
Tân An;10.905;106.6994;618984
Port-Bouët;5.2667;-3.9;618795
Pontianak;-0.0206;109.3414;618388
Meihekou;42.5407;125.7107;618251
Jurong;31.946;119.164;617706
Bihtā;25.5619;84.87;617427
Yuhuan;28.1277;121.2288;616346
Joinvile;-26.3204;-48.8437;616323
Feira de Santana;-12.25;-38.95;616279
Khabarovsk;48.4833;135.0833;616242
Leipzig;51.34;12.375;616093
Xinji;37.943;115.218;615919
Knoxville;35.9692;-83.9496;615829
Ta‘izz;13.5789;44.0219;615467
Etimesgut;39.9458;32.6694;614891
Changping;40.2248;116.1944;614821
Tallinn;59.4372;24.7453;614561
Chimalhuacán;19.4167;-98.9;614453
Kandahār;31.62;65.7158;614254
Serang;-6.12;106.1503;613356
Zhangshu;28.0546;115.5462;610424
Grand Rapids;42.9619;-85.6562;609023
Yukarıkaraman;36.9167;30.6833;608675
Gothenburg;57.7075;11.9675;607882
Kuantan;3.8167;103.3333;607778
Gold Coast;-28.0167;153.4;607665
Kawaguchi;35.8077;139.7241;607373
Las Piñas City;14.45;120.98;606293
Cuttack;20.5236;85.7881;606007
San Miguel de Tucumán;-26.8167;-65.2167;605767
Ar Rayyān;25.25;51.4;605712
Salīmpur;26.3;83.9167;604483
Malanje;-9.5333;16.35;604215
Columbia;34.0378;-80.9036;604065
Kryvyi Rih;47.91;33.39;603904
Djibouti;11.5883;43.145;603900
Zhuozhou;39.485;115.974;603535
Tianchang;32.6811;119.0137;602840
Tunis;36.8064;10.1817;602560
Yaroslavl;57.6167;39.85;601403
Bacolod;10.6765;122.9509;600783
Garoua;9.3;13.4;600000
Bafoussam;5.4667;10.4167;600000
Haifa;32.8192;34.9992;600000
Raurkela;22.2492;84.8828;600000
Tumkūr;13.34;77.1;599078
Balikpapan;-1.2768;116.8277;598043
Somolu;6.5408;3.3872;597400
Vladivostok;43.1333;131.9;597240
Al Ḩillah;23.4895;46.7564;594605
Melikgazi;38.7167;35.5;594344
Kagoshima;31.6;130.55;593754
Sihui;23.3265;112.7338;593400
Dortmund;51.5139;7.4653;593317
Irapuato;20.6667;-101.35;592953
Al Maḩallah al Kubrá;30.9686;31.1636;592573
Sialkot City;32.4925;74.5311;591668
Luocheng;30.99;104.25;591115
Albany;42.6664;-73.7987;590694
Pereira;4.8143;-75.6946;590554
Gaza;31.5069;34.456;590481
Uvira;-3.4;29.15;590000
Reynosa;26.0922;-98.2778;589466
Zāhedān;29.5025;60.8558;587730
Cimahi;-6.8712;107.5548;586580
Mbale;1.0806;34.175;586300
Wenlan;23.3961;103.3649;585976
Shangzhi;45.2116;127.962;585386
Essen;51.4508;7.0131;584580
Itabashi;35.7667;139.6833;584483
Shah Alam;3.0722;101.5167;584340
Botou;38.0833;116.5833;584308
Suginami-ku;35.6994;139.6364;583609
Tenkāsi;8.9564;77.3152;580000
Kingston;17.9714;-76.7931;580000
Al Mafraq;32.3399;36.2052;580000
Aţ Ţā’if;21.2751;40.4062;579970
Port Sudan;19.6167;37.2167;579942
Tuxtla;16.7528;-93.1167;578830
Dehra Dūn;30.345;78.029;578420
Xiulin;29.7209;112.4254;577022
Fu’an;27.1;119.6333;577000
Mymensingh;24.7539;90.4031;576927
Hachiōji;35.6664;139.316;575721
Iloilo;10.72;122.57;574000
Puente Alto;-33.6167;-70.5667;573935
Tomsk;56.5;84.9667;572740
Rabat;34.0209;-6.8416;572717
Sincan;39.9594;32.5767;572609
Bakersfield;35.3529;-119.0359;571992
Kottayam;9.5916;76.5222;571856
Luofeng;37.359;120.396;570898
Shibīn al Qanāţir;30.3133;31.3214;570868
Nakuru;-0.3;36.0667;570674
Lingyuan;41.25;119.4;570660
Tonalá;20.6167;-103.2333;569913
Bremen;53.0758;8.8072;569396
Abū Ḩummuş;31.1006;30.3128;569157
Irbid;32.55;35.85;569068
Macau;22.2006;113.5461;568700
Surrey;49.19;-122.8489;568322
Ciudad Bolívar;8.1219;-63.55;567953
Durgāpur;23.55;87.32;566937
Shenzhou;38.002;115.56;566087
New Haven;41.3113;-72.9246;565572
Orenburg;51.7833;55.1;564773
Kuiju;36.8667;119.4;564501
Zhenzhou;32.2723;119.1848;564021
Āsansol;23.68;86.99;563917
Bokaro Steel City;23.67;86.15;563417
Dresden;51.05;13.74;563311
Bello;6.3333;-75.5667;561955
Kolhāpur;16.6917;74.2333;561489
Wencheng;19.617;110.7551;560894
Lanxi;29.208;119.458;560514
Dangyang;30.821;111.789;560000
Nava Raipur;21.161;81.787;560000
Kemerovo;55.3667;86.0667;558973
Genoa;44.4111;8.9328;558745
Herāt;34.3419;62.2031;556205
Londrina;-23.31;-51.1628;555937
Cuautitlán Izcalli;19.65;-99.25;555163
Uyo;5.0333;7.9275;554906
Hamadān;34.8064;48.5161;554406
Luanzhou;39.741;118.704;554315
Chiclayo;-6.763;-79.8366;552508
Surakarta;-7.5667;110.8167;552118
Novokuznetsk;53.7667;87.1333;552105
Ajmer;26.4499;74.6399;551101
Kimhae;35.2342;128.8811;550758
Nānded;19.15;77.3;550439
Wuhai;39.655;106.794;550000
Palma;39.5667;2.65;550000
Rustenburg;-25.6667;27.2428;549575
Amrāvati;20.9258;77.7647;549370
Des Moines;41.5725;-93.6105;548926
Lisbon;38.7253;-9.15;548703
Yanji;42.9;129.5;548700
Huanghua;38.372;117.33;548507
Al Ḩudaydah;14.8022;42.9511;548433
Anyang;37.3833;126.9333;548372
The Hague;52.08;4.31;548320
Andijon;40.7833;72.3333;547800
Manchester;53.479;-2.2452;547627
Nellore;14.45;79.99;547621
Poznań;52.4083;16.9336;546859
Samarkand;39.6547;66.9758;546303
Xingcheng;40.6167;120.7333;546176
Wancheng;18.8;110.4;545992
Kaiyuan;42.546;124.038;545624
Hannover;52.3667;9.7167;545045
Sungai Petani;5.65;100.5;544851
Valledupar;10.4833;-73.25;544134
Fengcheng;40.45;124.0667;543933
Muntinlupa City;14.38;121.05;543445
Ghulja;43.9;81.35;542507
Ixtapaluca;19.3186;-98.8822;542211
Fuding;27.2;120.2;542000
Heroica Matamoros;25.8797;-97.5042;541979
Akron;41.0798;-81.5219;541945
Mbeya;-8.9;33.45;541603
An Nāşirīyah;31.0439;46.2575;541600
Xiangyang;34.2995;108.4905;541554
Ibagué;4.4333;-75.2333;541101
Al Ḩillah;32.4775;44.4314;541034
Juiz de Fora;-21.7619;-43.3494;540756
City of Calamba;14.22;121.17;539671
El Geneina;13.45;22.45;538390
Santa Cruz;28.4667;-16.25;538000
Ryazan;54.63;39.7425;537622
Chang’an;29.4768;113.4504;537500
Florianópolis;-27.6122;-48.4853;537213
Nilüfer;40.2833;28.95;536365
Antwerp;51.2178;4.4003;536079
Kassala;15.45;36.4;536009
Aksu;41.185;80.2904;535657
Salta;-24.7833;-65.4167;535303
Dispur;26.1397;91.7925;534872
Palm Bay;27.9631;-80.6593;534348
Naberezhnyye Chelny;55.6833;52.3167;533839
Gulbarga;17.329;76.825;533587
Nansana;0.3639;32.5286;532800
Mingguang;32.7833;117.9667;532732
Concord;37.9722;-122.0016;531175
Beira;-19.8333;34.85;530604
Yazd;31.8822;54.3397;529673
Ardabīl;38.2425;48.29;529374
Touba;14.8667;-15.8833;529176
Bīkaner;28.0181;73.3169;529007
Gaobeidian;39.327;115.874;528903
Ndola;-12.9689;28.6325;528330
Himeji;34.8167;134.6833;527596
Ailan Mubage;43.908;81.2777;526745
Bandar ‘Abbās;27.1961;56.2878;526648
Skopje;41.9961;21.4317;526502
Santa Teresa del Tuy;10.2333;-66.6639;525321
Port Said;31.2625;32.3061;524433
Astrakhan;46.35;48.035;524371
Kōtō-ku;35.6667;139.8167;524310
Ciudad Apodaca;25.7817;-100.1886;523370
Montería;8.75;-75.8833;523150
Nuremberg;49.4539;11.0775;523026
Kitchener;43.4186;-80.4728;522888
Yucheng;36.934;116.638;522878
Nāgercoil;8.175;77.4306;522759
Agartala;23.8314;91.2869;522613
Soacha;4.5872;-74.2214;522442
Buca;38.35;27.1667;522404
Lyon;45.76;4.84;522250
Maipú;-33.5167;-70.7667;521627
Arāk;34.0914;49.6933;520944
Serra;-20.1289;-40.3078;520649
Tultitlán de Mariano Escobedo;19.645;-99.1694;520557
Meknès;33.895;-5.5547;520428
Bắc Ninh;21.1833;106.05;520000
Anda;46.424;125.352;520000
Longzhou;30.32;112.23;520000
Al Fayyūm;29.3084;30.8441;519047
Utsunomiya;36.5551;139.8826;518197
Sheffield;53.3808;-1.4703;518090
Mixco;14.6331;-90.6064;517505
Suez;29.9667;32.55;516959
Heshan;22.7667;112.95;516500
Penza;53.2;45.0;516450
Loni;28.75;77.28;516082
Jiaji;19.2431;110.4642;515700
Santa Marta;11.2419;-74.2053;515556
Ujjain;23.17;75.79;515215
Beining;41.6;121.8;514898
Abū Ţisht;26.1183;32.0953;514535
Maturín;9.75;-63.183;514046
Liverpool;53.4094;-2.9785;513441
Macapá;0.033;-51.05;512902
Benguela;-12.55;13.4167;512886
Yicheng;31.721;112.257;512530
Al Fashn;28.8227;30.8992;512242
Al ‘Amārah;31.8333;47.15;511500
Carrefour;18.5344;-72.4094;511345
Campos;-21.7539;-41.3239;511168
Cadaado;6.1403;46.6256;510654
Encheng;22.1833;112.3;509700
Bhīlwāra;25.35;74.63;509483
Bibā;28.9218;30.9844;509384
Wichita;37.6895;-97.3443;509003
Leicester;52.6344;-1.1319;508916
Newcastle;-27.7464;29.9328;507710
Hải Dương;20.9397;106.3306;507469
Aden;12.8;45.0333;507355
Jhānsi;25.4486;78.5696;507000
Matsuyama;33.8333;132.7667;506743
Ulhāsnagar;19.22;73.15;506098
Nagqu;31.476;92.051;504838
Kitwe;-12.8167;28.2;504194
Vellore;12.9165;79.1325;504079
Toulouse;43.6045;1.444;504078
Pohang;36.0322;129.365;503780
Mesa;33.4015;-111.7178;503390
Lipetsk;52.6167;39.6;503216
Duisburg;51.4347;6.7625;502211
Jammu;32.73;74.87;502197
Ile-Ife;7.4667;4.5667;501952
Homyel’;52.4453;30.9842;501802
Kirov;58.6;49.6833;501468
Mazatlán;23.2167;-106.4167;501441
Meicheng;30.631;116.581;500292
El Fasher;13.6306;25.35;500000
Farāh;32.3436;62.1194;500000
Belas;-8.9983;13.265;500000
Talatona;-8.9167;13.1833;500000
Nenjiang;49.11;125.13;500000
Sukkur;27.7061;68.8483;499900
Hsinchu;24.8167;120.9833;499348
Harrisburg;40.2752;-76.8843;498329
Kaliningrad;54.7003;20.4531;498260
Hongjiang;27.191;109.819;498100
Qaraghandy;49.8028;73.1056;497777
Lapu-Lapu City;10.3127;123.9488;497604
Matsudo;35.7876;139.9032;497514
Johor Bahru;1.4556;103.7611;497097
Purnea;25.778;87.476;496830
Imus;14.4297;120.9367;496794
Niterói;-22.8833;-43.1036;496696
Beipiao;41.801;120.771;496164
Dengtacun;41.4333;123.3333;496122
Zhijiang;30.426;111.761;495995
Suoluntun;45.2279;124.8432;495900
Staten Island;40.5834;-74.1496;495747
Chengjiao;35.3984;114.0649;495744
Lembok;-8.565;116.351;495651
Likasi;-10.9833;26.7333;495000
Oujda-Angad;34.6867;-1.9114;494252
Duyun;26.2594;107.5186;493574
Toledo;41.6638;-83.5827;493302
Pindi Bhattian;31.8958;73.2761;493222
Nyala;12.05;24.8833;492984
Bissau;11.85;-15.5667;492004
Ichikawa;35.7219;139.9311;491716
Kota Bharu;6.1333;102.25;491237
Yuanping;38.731;112.711;491213
Higashi-ōsaka;34.6794;135.6008;490819
Larkana;27.5583;68.2111;490508
‘Ajmān;25.4136;55.4456;490035
Vinh;18.6667;105.6667;490000
Ciudad López Mateos;19.55;-99.2833;489937
Cheboksary;56.15;47.2333;489498
Yueqing;28.12;120.96;488980
Belgaum;15.85;74.5;488157
Caerdydd;51.4833;-3.1833;488153
Edinburgh;55.9533;-3.1892;488050
Brookhaven;40.832;-72.9517;487162
Nishinomiya-hama;34.7376;135.3416;487010
Karamay;45.5799;84.8892;487000
Worcester;42.2705;-71.8079;486486
Kawachichō;34.6794;135.6008;486464
Shahe;36.8549;114.5033;486329
Gdańsk;54.3475;18.6453;486022
Sevastopol;44.605;33.5225;485386
Garoowe;8.4;48.4667;485000
Gaoping;35.798;112.924;484862
Villa Nueva;14.5269;-90.5875;483897
Dunhua;43.3667;128.2333;483811
Lianran;24.919;102.478;483753
Akhmīm;26.5667;31.75;482666
Şanlıurfa;37.1583;38.7917;482323
Az Zarqā’;32.0833;36.1;481300
Mālegaon;20.55;74.55;481228
São José do Rio Prêto;-20.8081;-49.3811;480439
Valletta;35.8983;14.5125;480134
Kolwezi;-10.7167;25.4667;480000
Jāmnagar;22.47;70.07;479920
Sylhet;24.9;91.8667;479837
Ananindeua;-1.3658;-48.3719;478778
East London;-33.0175;27.9047;478676
Berbera;10.4356;45.0164;478000
Jiannan;31.3333;104.2;477868
Chiniot;31.7194;72.9842;477781
Asunción;-25.3;-57.6333;477346
Ōita;33.2333;131.6067;477186
Nangong;37.359;115.409;476096
Bārdoli;21.12;73.12;475963
Eldoret;0.5167;35.2833;475716
Bratislava;48.1439;17.1097;475503
Kurashiki;34.585;133.7722;474862
Al Jubayl;27.0;49.6544;474679
Worthing;50.8147;-0.3714;474485
Gaya;24.75;85.01;474093
Shekhupura;31.7111;73.9878;473129
Piura;-5.2;-80.6333;473025
Vila Velha;-20.3364;-40.2936;472762
Ar Ruşayfah;32.0178;36.0464;472604
Jiaojiangcun;28.6804;121.45;471500
Laohekou;32.359;111.684;471482
San Juan;-31.5342;-68.5261;471389
Mykolaiv;46.975;31.995;470011
Beian;48.25;126.5167;470000
Fujin;47.25;132.0333;470000
Küçükçekmece;41.0;28.8;469431
Mazār-e Sharīf;36.7;67.1167;469247
Xiaoyi;36.0833;111.5167;468770
Balashikha;55.8167;37.9667;468221
Qingzhen;26.5704;106.4687;467992
Tula;54.2;37.6167;467955
Ba‘qūbah;33.75;44.6333;467900
Katlehong;-26.3333;28.15;467890
Jiangshan;28.7361;118.625;467862
Buraydah;26.3333;43.9667;467410
Surab;28.4925;66.2597;467000
Kupang;-10.1702;123.6077;466632
Ambattūr;13.1143;80.1548;466205
Nakhon Ratchasima;14.975;102.1;466098
Tân Uyên;11.0508;106.7636;466053
Constantine;36.35;6.6;465138
Longjiang;27.5819;120.5489;464695
Caxias do Sul;-29.1667;-51.1833;463338
Angeles City;15.1472;120.5847;462928
Kuqa;41.7156;82.9322;462588
Kanazawa;36.5611;136.6564;462479
Long Beach;33.7977;-118.167;462293
Port St. Lucie;27.2796;-80.3884;462047
Manado Light;1.4931;124.8413;461636
Kartal;40.8872;29.19;461155
Cranbourne;-38.0996;145.2834;460491
Jalgaon;21.004;75.568;460468
Porto Velho;-8.7619;-63.9039;460413
Chhatarpur;24.55;79.3527;459943
Fukuyama;34.4858;133.3622;459576
Little Rock;34.7256;-92.3577;459409
Juba;4.85;31.6;459342
Lanús;-34.7;-58.4;459263
Amagasaki;34.7333;135.4;458835
Kikwit;-5.0386;18.8181;458000
Pyeongtaek;36.9922;127.1128;457873
Reno;39.5497;-119.8483;457702
Kurnool;15.83;78.05;457633
Spokane;47.6671;-117.433;456219
Marikina City;14.65;121.1;456059
Jian’ou;27.0333;118.3167;456000
Huadian;42.972;126.746;455339
Melaka;2.1944;102.2486;455300
Manado;1.4931;124.8413;454606
Manizales;5.1;-75.55;454494
Bornova;38.4697;27.2211;454470
Minzhu;43.7238;127.3448;453265
Demiryol;37.887;41.132;452157
Erköklü;37.887;41.132;452157
Kota Kinabalu;5.975;116.0725;452058
Katsushika-ku;35.7333;139.85;451772
Madison;43.0822;-89.393;451652
Santiago de Cuba;20.0217;-75.8294;451528
Udaipur;24.58;73.68;451100
Kursk;51.7167;36.1833;450977
Mogi das Cruzes;-23.5228;-46.1878;450785
Stavropol;45.05;41.9833;450680
General Trias;14.38;120.88;450583
Sirājganj;24.45;89.75;450000
Boise;43.6005;-116.2308;449776
Bonita Springs;26.3558;-81.7859;449527
Mariupol;47.0958;37.5494;449498
Eslāmshahr;35.5317;51.2247;448129
Piraeus;37.943;23.6469;448051
Barcelona;10.1403;-64.6833;448016
Tanbei;35.088;112.951;447701
Zürich;47.3744;8.5411;447082
Pingquan;41.0042;118.6848;446939
Ado-Ekiti;7.6211;5.2214;446749
Baisha;29.4896;119.337;446000
Batman;37.887;41.132;445874
Yongji;34.867;110.448;444724
Esenler;41.0339;28.8903;444561
Rodriguez;14.72;121.12;443954
Ensenada;31.8578;-116.6058;443807
Danjiangkou;32.5401;111.5131;443755
Chauddagram;23.2283;91.3133;443648
Kahramanmaraş;37.5833;36.9333;443575
San Nicolás de los Garza;25.75;-100.2833;443273
Taoyuan District;24.9913;121.3143;443273
Ndjili;-4.4089;15.3775;442138
Mathura;27.4924;77.6737;441894
Pasay City;14.55;121.0;440656
Ning’an;44.341;129.483;440000
Halifax;44.6475;-63.5906;439819
Fujisawa;35.35;139.4667;439728
Ulan-Ude;51.8333;107.6;439128
Denton;33.2175;-97.1418;438492
Laval;45.5833;-73.75;438366
Jinchang;38.5214;102.188;438026
Oakland;37.7904;-122.2166;437825
Springfield;42.1155;-72.5395;437752
Guangming;45.3357;122.7765;437559
Augusta;33.3645;-82.0708;437257
Kâğıthane;41.0719;28.9664;437026
Sunch’ŏn;39.4167;125.9333;437000
Sāngli;16.853;74.583;436639
Avcılar;40.9792;28.7214;435625
Jeju;33.513;126.523;435413
Zhuangyuan;37.3056;120.829;435405
Davangere;14.4666;75.9242;435125
Machida;35.5542;139.4431;434414
Sanghar;26.0442;68.9536;434087
Al Marāghah;26.7;31.6;432678
Bandung;-6.912;107.6097;432557
Kissimmee;28.3041;-81.4169;431618
Calicut;11.2588;75.7804;431560
Kenitra;34.25;-6.5833;431282
Windhoek;-22.57;17.0836;431000
Huili Chengguanzhen;26.6333;102.25;430066
Sidi Bouzid;35.0381;9.4858;429912
Bārāmati;18.15;74.58;429600
Ţanţā;30.7833;31.0;429503
Ismailia;30.5833;32.2667;429465
Cusco;-13.525;-71.9722;428450
Veracruz;19.1903;-96.1533;428323
Sokoto;13.0622;5.2339;427760
Winston-Salem;36.1029;-80.261;427706
Kashiwa;35.8676;139.9758;427603
Al Bājūr;30.4333;31.0569;427017
Xunyang;32.8341;109.3653;426677
Malatya;38.3486;38.3194;426381
Yan’an Beilu;44.0144;87.2674;426253
Mothīhāri;26.65;84.9167;426158
Aomori;40.8228;140.7469;425962
Akola;20.7;77.0;425817
Mandaluyong City;14.58;121.03;425758
Aves;41.44;-8.3;425411
Sihŭng;37.3799;126.8029;425184
Burco;9.5279;45.5345;425000
Tver;56.8625;35.9242;424969
Xalapa;19.54;-96.9275;424755
Buenaventura;3.8772;-77.0267;423927
London;42.9836;-81.2497;423369
Piracicaba;-22.7253;-47.6492;423323
Yogyakarta;-7.8014;110.3644;422732
Toyota;35.0824;137.1563;422106
Daloa;6.8833;-6.45;421871
Agadir;30.4333;-9.6;421844
Elazığ;38.6744;39.2228;421726
Uijeongbu;37.7486;127.0389;421579
Hpa-An;16.8906;97.6333;421525
Rahimyar Khan;28.42;70.3;420419
Ugep;5.8;8.0833;420000
Hailin;44.594;129.38;420000
Mishan;45.5298;131.8466;420000
Sarajevo;43.8564;18.4131;419957
Seremban;2.7222;101.9417;419536
Zhengjiatun;43.5183;123.5027;419529
Lecheng;25.1333;113.3333;419500
Campina Grande;-7.2306;-35.8811;419379
Xicheng;23.3667;103.15;419314
Pencheng;29.676;115.681;419047
Kowloon City;22.3282;114.1916;418732
Tirana;41.3289;19.8178;418495
Kushtia;23.9101;89.1231;418312
El Obeid;13.1833;30.2167;418280
Mauá;-23.6678;-46.4608;418261
Magnitogorsk;53.3833;59.0333;418241
Da’an;45.5;124.2833;418232
Luhansk;48.5678;39.3031;417990
Xingren;25.435;105.1862;417919
Takamatsu;34.35;134.05;417814
Arusha;-3.3667;36.6833;416442
Fenyang;37.2616;111.7699;416212
Ajdābiyā;30.7556;20.2253;416000
Callao;-12.0522;-77.1392;415888
Awsīm;30.1167;31.1333;415735
Shinagawa-ku;35.6;139.7333;415729
Paju;37.8667;126.8;415345
Santa Rosa;14.32;121.12;414812
Bettiah;26.8014;84.5028;414453
Jhang City;31.2694;72.3161;414131
Altındağ;39.9636;32.9033;413994
Talā;30.6801;30.9438;413839
Stockton;37.9765;-121.3109;413637
Ţalkhā;31.0547;31.3756;413584
Boa Vista;2.8194;-60.6714;413486
Banjul;13.4531;-16.5775;413397
Jayapura;-2.533;140.717;413283
Toyama;36.6959;137.2137;413028
Sanandaj;35.3114;46.9961;412767
Fangting;31.127;104.167;412758
Khon Kaen;16.4333;102.8333;412758
Linghai;41.1667;121.35;412513
Shorāpur;16.52;76.76;412291
Koumassi;5.3;-3.95;412282
Betim;-19.9678;-44.1978;411859
Sochi;43.5853;39.7203;411524
Tinnevelly;8.7136;77.7567;411298
Pasto;1.2078;-77.2772;410835
Syracuse;43.0407;-76.1437;410732
Bellary;15.1;76.9167;410445
Bhāgalpur;25.25;87.0;410210
Kisumu;-0.0833;34.7667;409928
Zhangjiakou Shi Xuanhua Qu;40.5944;115.0243;409745
Maringá;-23.4;-51.9167;409657
Kocasinan;38.7333;35.4833;409005
Mataram;-8.5833;116.1167;408900
Shashemenē;7.2;38.6;408368
Zaria;11.0667;7.7;408198
Kumi;36.1195;128.3444;407880
Wanyuan;31.9833;107.9667;407594
Biñan;14.33;121.08;407437
Chattanooga;35.066;-85.2481;406849
Jiexiu;37.027;111.917;406517
Bağlar;37.9167;40.1833;406471
Padiāla;30.802;76.593;406192
Đà Lạt;11.9417;108.4383;406105
Sham Shui Po;22.3307;114.1622;405869
Santa Fe;-31.6333;-60.7;405683
Delhi Cantonment;28.6;77.1333;405633
Cumaná;10.4564;-64.1675;405626
Barura;23.375;91.0583;405118
Yüreğir;36.9981;35.3439;404726
Nagasaki;32.7447;129.8736;404656
Mardan;34.2012;72.0258;404436
Hat Yai;7.0167;100.4667;404044
Salt Lake City;22.61;88.4;403316
Qazvīn;36.2894;50.0086;402748
Etāwa;24.18;78.2;402678
Lancaster;40.042;-76.3012;402476
Sonīpat;28.99;77.022;402000
Jundiaí;-23.1858;-46.8839;401896
Ivanovo;56.9967;40.9819;401505
Greenville;34.8354;-82.3646;401443
Toyonaka;34.7833;135.4667;401233
Bogra;24.85;89.3667;400983
Öskemen;49.9833;82.6167;400142
Gifu;35.4232;136.7608;400118
Jiangjiafan;31.0238;111.9709;400000
Maungdaw;20.8167;92.3667;400000
Durham;35.9792;-78.9022;399616
Bryansk;53.2333;34.3667;399579
Dera Ghazi Khan;30.0331;70.64;399064
Anápolis;-16.3339;-48.9519;398817
Pensacola;30.4413;-87.1911;398813
Miyazaki;31.9078;131.4203;397476
Quilon;8.8932;76.6141;397419
Mulangodi;9.0;76.6167;397419
Munro Turuttu;9.0;76.6167;397419
Hirakata;34.8167;135.65;396694
Sandakan;5.8333;118.1167;396290
Szczecin;53.4325;14.5481;396168
Brno;49.1925;16.6083;396101
Surgut;61.25;73.4333;395900
Hejin;35.596;110.712;395527
Fayetteville;36.0714;-94.1661;394650
Betsiboka;-16.95;46.83;394561
Thiès;14.7833;-16.9167;394544
Arlington;32.6998;-97.125;393469
Al Jahrā’;29.35;47.6833;393432
Kaunas;54.8972;23.8861;393397
Thanh Hóa;19.8075;105.7764;393294
Diadema;-23.6861;-46.6106;393237
Lobito;-12.3667;13.5333;393079
Saurimo;-9.65;20.4;393000
Yola;9.23;12.46;392854
Zhugang;28.1358;121.2264;392800
Tāngāil;24.2644;89.9181;392300
Nha Trang;12.245;109.1917;392279
Khayelitsha;-34.0403;18.6778;391749
Ad Dīwānīyah;31.9892;44.9247;391600
Nnewi;6.0167;6.9167;391227
Hancheng;35.4667;110.4333;391164
San-Pédro;4.75;-6.6333;390654
Gujrat;32.5739;74.0789;390533
Yokosuka;35.2813;139.6721;390275
Tieli;46.95;128.05;390000
Asyūţ;27.1833;31.1667;389307
Gwoza;11.0861;13.6914;388600
Sampaloc;14.6031;121.0022;388305
Saki;8.6667;3.4;388225
Bologna;44.4939;11.3428;387971
Aqtöbe;50.2836;57.2297;387807
Cilegon;-6.0027;106.0112;387543
Uvinza;-5.1069;30.3839;387442
Aurora;39.7083;-104.7237;387349
Carapicuíba;-23.5192;-46.8358;387121
Ḩafr al Bāţin;28.4342;45.9636;387096
Zanjān;36.6789;48.5056;386851
Petrolina;-9.3825;-40.5022;386786
Bairia;25.7583;84.1489;386745
Oyo;7.85;3.933;386723
Taytay;14.5692;121.1325;386451
Kisenzi;-4.4094;15.3425;386151
Bhātpāra;22.87;88.41;386019
Kūkatpalli;17.4849;78.4138;385821
Manisa;38.6144;27.4292;385452
Sirūr;18.83;74.38;385414
Tarlac City;15.4869;120.59;385398
Okazaki;34.9543;137.1744;385376
Lianzhou;24.781;112.377;384700
Ceel Baraf;3.2073;45.7587;384630
Yidu;30.378;111.45;384598
Lingxi;27.5036;120.3975;384390
Ilesa;7.6167;4.7167;384334
Kākināda;16.9661;82.255;384182
Savar;23.85;90.26;384093
Nuevo Laredo;27.4861;-99.5069;384033
Bawshar;23.5333;58.3833;383257
Christchurch;-43.531;172.6365;383200
Gusau;12.15;6.6667;383162
Zêtang;29.238;91.771;382610
Palu;-0.895;119.8594;381572
Canberra;-35.2931;149.1269;381488
Minamisuita;34.7594;135.5169;381238
Tétouan;35.5667;-5.3667;380787
Malabon;14.66;120.96;380522
Neiva;2.9345;-75.2809;380019
Novi Sad;45.2542;19.8425;380000
Huancayo;-12.0667;-75.2167;378203
Celaya;20.5222;-100.8122;378143
Ichinomiya;35.3039;136.8031;378108
Caruaru;-8.2828;-35.9758;378052
Sintra;38.7992;-9.3883;377835
Hatay;36.2025;36.1606;377793
Iquitos;-3.75;-73.25;377609
Pānihāti;22.69;88.37;377347
Cainta;14.57;121.12;376933
Helixi;30.6267;118.9861;376857
Mamou;10.3833;-12.0833;376269
Manukau City;-37.0;174.885;375600
Itaquaquecetuba;-23.4864;-46.3486;375011
Cantonment;31.5167;74.3833;374872
Rohtak;28.8909;76.5796;374292
Gaziantep;37.0628;37.3792;374290
Māler Kotla;30.5167;75.8833;374000
Bhawana;31.5661;72.6461;373841
Khorramābād;33.4875;48.3561;373416
Lipa City;13.9411;121.1622;372931
Butuan;8.948;125.543;372910
Dikirnis;31.0883;31.5969;372871
Stoke-on-Trent;53.0;-2.1833;372775
Takasaki;36.3219;139.0033;372639
Malakwal;32.5531;73.2067;371869
Toyohashi;34.7692;137.3915;371507
Chitungwiza;-17.9939;31.0481;371244
Gebze;40.8;29.4333;371000
Cibinong;-6.485;106.842;370928
Lengshuijiang;27.686;111.436;370300
Panshi;42.95;126.0667;370238
Az Zubayr;30.3833;47.7;370000
Oxnard;34.1964;-119.1815;369962
Vinnytsia;49.2333;28.4833;369739
Indio;33.7346;-116.2346;369654
Bharatpur;27.6833;84.4333;369377
Petare;10.4833;-66.8167;369000
Nagano;36.6486;138.1947;367184
Huichang;34.9073;112.7914;367113
Keelung;25.1333;121.7333;367107
Bauru;-22.315;-49.0608;366992
La Florida;-33.5333;-70.5833;366916
Nicolás Romero;19.5833;-99.3667;366602
Jinshan;25.1462;102.0723;366512
Baguio City;16.4119;120.5933;366358
Scranton;41.4044;-75.6649;366334
Bochum;51.4819;7.2158;365742
Sivas;39.75;37.0167;365274
Kolga;22.35;82.68;365253
Korba;22.3458;82.6963;365253
Qardho;9.5;49.0833;365000
Rio Branco;-9.9747;-67.81;364756
Tecámac;19.7131;-98.9683;364579
Alanya;36.55;32.0;364180
Mandaue City;10.33;123.93;364116
Victorville;34.5277;-117.3536;364015
Kocaeli;40.7625;29.9175;363416
Warri;5.5167;5.75;363382
Victoria;48.4283;-123.3647;363222
Wŏnsan;39.1475;127.4461;363127
Iligan;8.23;124.25;363115
Anguo;38.418;115.327;363091
K’ebrī Dehar;6.7333;44.2667;363000
Coventry;52.4081;-1.5106;362690
Kayapınar;37.95;40.1667;362407
Trenton;40.2237;-74.7641;362179
Cuenca;-2.8974;-79.0045;361524
Blumenau;-26.9333;-49.05;361261
Nanqiao;30.9167;121.4547;361185
Florence;43.7714;11.2542;360930
Buurhakaba;2.7833;44.0833;360795
Bengkulu;-3.7956;102.2592;360495
Malmö;55.6058;13.0358;360249
Wudalianchi;48.75;126.1667;360000
Shuanghe;30.3746;106.7903;360000
Pétion-Ville;18.5128;-72.2864;359615
Utrecht;52.0908;5.1217;359370
Sīkar;27.62;75.15;359293
Umuahia;5.5333;7.4833;359230
Vitsyebsk;55.1917;30.2056;359148
Palmira;3.5833;-76.25;358895
Wuppertal;51.2667;7.1833;358876
Hrodna;53.6667;23.8333;358717
Ash Shuhadā’;30.6039;30.9021;358486
Karūr;10.9601;78.0766;358468
Ponta Grossa;-25.0994;-50.1583;358367
Sasarām;24.95;84.03;358283
Taraz;42.9;71.3667;357795
Cubal;-13.0333;14.25;357618
Luena;-11.7918;19.9062;357413
Karnāl;29.686;76.989;357334
Yong’an;25.942;117.365;357000
Konak;38.4189;27.1285;356563
Minatitlán;17.9833;-94.55;356020
Linxia Chengguanzhen;35.6047;103.2422;355968
Brahmapur;19.315;84.7941;355823
Chānda;19.95;79.3;355739
Caucaia;-3.7167;-38.65;355679
Cuito;-12.3833;16.9333;355423
Cabuyao;14.275;121.125;355330
Hongzhai;34.9857;104.5446;355037
Gedaref;14.0333;35.3833;354927
San Fernando;15.03;120.68;354666
Kawagoe;35.9251;139.4858;354598
Modesto;37.6375;-121.0028;354183
Nizhniy Tagil;57.9167;59.9667;353950
Pokhara;28.2083;83.9889;353841
Villahermosa;17.9892;-92.9281;353577
Van;38.4942;43.38;353419
Mahilyow;53.9167;30.35;353338
Wakayama;34.2333;135.1667;353299
Osh;40.53;72.8;353080
Kita-ku;35.75;139.7333;353058
Gimpo;37.7;126.6;352683
Corrientes;-27.4833;-58.8167;352646
Franca;-20.5389;-47.4008;352537
Thari Mir Wah;27.0683;68.6023;352491
Nara;34.6844;135.805;352377
Vladimir;56.1286;40.4058;352347
Yakeshi;49.286;120.712;352173
Nam Định;20.42;106.1683;352108
Sinŭiju;40.1;124.4;352000
Oruro;-17.9667;-67.1167;351802
Cabimas;10.4;-71.45;351735
Arkhangelsk;64.5333;40.5333;351488
Batangas;13.83;121.0;351437
Ibb;13.9667;44.1667;350864
Ahmadnagar;19.08;74.73;350859
Sarai Alamgir;32.9;73.75;350288
Semey;50.4333;80.2667;350201
Holguín;20.8869;-76.2592;350191
Tungi;23.9;90.41;350000
Yingmen;39.9487;97.4395;350000
Sawrān;36.6606;44.5508;350000
Chita;52.05;113.4667;349983
Olinda;-8.0;-34.8833;349976
Praia Grande;-24.0061;-46.4028;349935
Dāsarhalli;13.0465;77.513;349720
Huntsville;34.6981;-86.6412;349482
Shinjuku;35.7014;139.7097;349385
Alicante;38.3453;-0.4831;349282
Cariacica;-20.2639;-40.42;348738
Varna;43.2167;27.9167;348594
Honolulu;21.3294;-157.846;348547
Antofagasta;-23.65;-70.4;348517
Ambon;-3.7;128.1667;348225
Nice;43.7034;7.2663;348085
Cascavel;-24.9556;-53.4553;348051
Pamukkale;37.9167;29.1167;347926
Canoas;-29.92;-51.18;347657
Takatsuki;34.8461;135.6175;347496
António Enes;-16.2333;39.9167;347175
Greensboro;36.0956;-79.8271;347130
Anaheim;33.839;-117.8574;347111
Plovdiv;42.15;24.75;346893
Central Coast;-33.3;151.2;346596
Karşıyaka;38.4594;27.1153;346264
Shāhjānpur;27.88;79.91;346103
Gwagwalada;8.9392;7.0758;346000
Alamādi;13.1097;80.0972;345996
Āvadi;13.1147;80.1098;345996
Tanch’ŏn;40.458;128.911;345876
Khānāpur;15.6394;74.5083;345839
Wad Medani;14.4;33.5167;345290
Kūstī;13.1667;32.6667;345068
Belfast;54.5964;-5.93;345006
Hosūr;12.7409;77.8253;345000
Cuddapah;14.47;78.82;344893
Nakano;35.7074;139.6638;344880
Ōtsu;35.0167;135.85;343991
Maseru;-29.31;27.48;343541
Makiivka;48.0556;37.9611;343158
Pavlodar;52.3;76.95;343091
Chon Buri;13.3611;100.985;342959
Naga City;13.6244;123.1864;342769
Sarıyer;41.1669;29.0572;342503
Brest;52.1347;23.6569;342461
Meram;37.8364;32.4383;342315
Gómez Palacio;25.5611;-103.4983;342286
Paulista;-7.9408;-34.8728;342167
Rājahmundry;16.98;81.78;341831
Koshigaya;35.8911;139.7909;341784
Vũng Tàu;10.3833;107.1167;341552
Jeonju;35.8167;127.15;341545
Alwar;27.5498;76.6355;341422
Tokorozawa;35.7996;139.4686;341289
Sumqayıt;40.5897;49.6686;341200
Vitória da Conquista;-14.8658;-40.8389;341128
Simferopol;44.9519;34.1022;340540
Buôn Ma Thuột;12.6667;108.05;340000
Serekunda;13.4333;-16.6667;340000
Islip;40.7385;-73.1888;339123
Cuernavaca;18.9186;-99.2342;338650
Markham;43.8767;-79.2633;338503
Bielefeld;52.0211;8.5347;338332
Uberaba;-19.7478;-47.9319;337846
Jitpur;27.6666;85.3333;337785
Bydgoszcz;53.1219;18.0003;337666
Tangdong;25.973;113.231;337495
Chinju;35.2;128.0833;337230
Corpus Christi;27.7254;-97.3767;337230
Fort Wayne;41.0888;-85.1436;337163
Reading;51.4542;-0.9731;337108
Randburg;-26.0936;28.0064;337053
Matadi;-5.8167;13.4833;337000
Bonn;50.7333;7.1;336465
Iwaki;37.0505;140.8877;336111
Oshawa;43.9;-78.85;335949
Shah Latif Town;24.8806;67.1625;335823
Sambalpur;21.47;83.97;335761
Fort Collins;40.5477;-105.0656;335398
Jackson;32.3157;-90.2125;335171
Yingzhong;32.237;119.815;334977
Santo Domingo de los Colorados;-0.2542;-79.1719;334826
Uruapan;19.4208;-102.0628;334749
Lublin;51.25;22.5667;334681
Licheng;24.5;110.4;334527
Tampere;61.4981;23.76;334112
Belgorod;50.6;36.6;333931
Muzaffarpur;26.1225;85.3906;333200
Viña del Mar;-33.0244;-71.5517;332875
Tepic;21.5083;-104.8931;332863
Khipro;25.823;69.377;332833
Hangu;39.232;117.777;332793
Asan;36.7833;126.9833;332790
Chak Jhumra;31.5667;73.1833;332461
Myrtle Beach;33.7094;-78.8844;332181
Soledad de Graciano Sánchez;22.1833;-100.9333;332072
Şalālah;17.0197;54.0897;331949
Santarém;-2.43;-54.72;331937
Yanbu;24.0883;38.0582;331916
Maebashi;36.3895;139.0634;331849
Kaluga;54.55;36.2833;331842
Dumai;1.6667;101.45;331832
Beylikdüzü;41.0011;28.6419;331525
Gəncə;40.6828;46.3606;331400
Asahikawa;43.7667;142.3667;331392
Kendari;-3.9907;122.5086;331013
Wŏnju;37.3417;127.9208;330854
Birkat as Sab‘;30.6338;31.0848;330847
Lafia;8.4917;8.5167;330712
Dahūk;36.8667;43.0;330600
Finglas;53.4597;-6.2181;330506
Kāmārhāti;22.6686;88.3704;330211
Nicosia;35.1725;33.365;330000
Bamiantong;44.9167;130.5167;330000
Thái Nguyên;21.6;105.85;330000
São Vicente;-23.9633;-46.3922;329844
Ribeirão das Neves;-19.7669;-44.0869;329794
Guédiawaye;14.7833;-17.4;329659
Ciudad Obregón;27.4939;-109.9389;329404
São José dos Pinhais;-25.535;-49.2058;329222
Campīernagar;27.029;83.2668;329104
Phatthaya;12.9357;100.889;328961
Fayetteville;35.085;-78.9772;328804
Debrecen;47.53;21.6392;328642
Mirpur Mathelo;28.0167;69.5333;327821
Sultanbeyli;40.9683;29.2617;327798
Bijāpur;16.83;75.71;327427
Cabanatuan City;15.4908;120.9678;327325
Tharād;24.3926;71.6248;327289
Antioch;37.9787;-121.796;327216
Si Racha;13.174;100.93;327172
Salamanca;20.5703;-101.1972;327169
Ratnāgiri;16.9944;73.3;327120
Ulanhot;46.0722;122.0933;327081
Koriyama;37.4004;140.3597;327040
Yunzhong;39.8279;113.1;326849
Roodepoort;-26.1625;27.8725;326416
Volzhskiy;48.8056;44.7417;326055
Pucallpa;-8.3833;-74.55;326040
San Pedro;14.3583;121.0583;326001
Pelotas;-31.7719;-52.3425;325689
Kōchi;33.5589;133.5314;325535
Rāmpur;28.8;79.0;325248
Kuching;1.5575;110.3439;325132
Cotabato;7.22;124.25;325079
Cimanggis;-6.3645;106.8591;324343
Gonaïves;19.4456;-72.6883;324043
Nazrēt;8.5414;39.2689;324000
Kikuyu;-1.25;36.6667;323881
Córdoba;37.8845;-4.7796;323763
Kluang;2.0336;103.3194;323762
Mekele;13.4969;39.4769;323700
Binxian;35.0542;108.0814;323256
Nantes;47.2181;-1.5528;323204
Vaughan;43.8333;-79.5;323103
Kaiyuan;23.7111;103.2461;323031
Vitória;-20.2889;-40.3083;322869
Shimoga;13.9333;75.5667;322650
Lansing;42.7142;-84.5601;322561
Uíge;-7.6167;15.05;322531
Hotan;37.1167;79.9167;322300
Camagüey;21.3839;-77.9075;321992
Taourirt;34.4169;-2.885;321876
San Salvador de Jujuy;-24.1833;-65.3;321789
Kāshīpur;29.22;78.95;321623
Thủ Dầu Một;10.9667;106.65;321607
Al Kūt;32.4907;45.8304;321521
Lexington;38.0423;-84.4587;321276
Sukabumi;-6.9181;106.9315;320970
Münster;51.9625;7.6256;320946
Menongue;-14.6556;17.6842;320914
Mobile;30.6782;-88.1162;320855
Godē;5.9527;43.5516;320782
Okene;7.55;6.2333;320260
Jūnāgadh;21.5222;70.4579;320250
Smolensk;54.7828;32.0453;320170
Guasavito;25.5744;-108.4706;320000
Asan;36.35;126.9167;319929
Nukus;42.4667;59.6;319583
Kaech’ŏn;39.6986;125.9061;319554
Tehuacán;18.4617;-97.3928;319375
Coatzacoalcos;18.15;-94.4333;319187
Muhanga;-2.0845;29.7527;319141
Youngstown;41.0993;-80.6463;319065
Zalantun;48.027;122.708;318933
Saransk;54.1833;45.1833;318841
Katsina;12.9889;7.6008;318459
Puerto Plata;19.8;-70.6833;318419
Henderson;36.0133;-115.0381;318063
Gwangmyeongni;37.476;126.866;318021
Geita;-2.8714;32.2294;318006
Cherepovets;59.1167;37.9;317970
Taubaté;-23.025;-45.5556;317915
An Nhơn;13.917;109.083;317620
Fontibón;4.6786;-74.1411;317179
Hāpur;28.7309;77.7757;317004
Kot Radha Kishan;31.1725;74.0997;317000
Barueri;-23.5111;-46.8764;316473
San Salvador;13.6989;-89.1914;316090
Savannah;32.0286;-81.1821;316050
Naha;26.2122;127.6792;316048
Bari;41.1253;16.8667;316015
Xiaoli;22.6721;113.2509;315820
Trichūr;10.5276;76.2144;315596
Mannheim;49.4878;8.4661;315554
Bor;6.2125;31.5608;315351
Cà Mau;9.1833;105.15;315270
Saint-Denis;-20.8789;55.4481;315080
San Miguelito;9.033;-79.5;315019
Muar;2.05;102.5667;314776
Kasur;31.1167;74.45;314617
Usme;4.4464;-74.1522;314431
Barddhamān;23.2333;87.8667;314265
Poughkeepsie;41.695;-73.9211;314159
Kingston upon Hull;53.7444;-0.3325;314018
Binangonan;14.4514;121.1919;313631
Temara;33.9267;-6.9122;313510
Attiecoubé;5.3333;-4.0333;313135
Jiayuguan;39.7732;98.2882;312663
Pasir Gudang;1.5028;103.9356;312499
Vologda;59.2167;39.9;312420
Gorgān;36.8378;54.4414;312223
Tanza;14.3944;120.8531;312116
Yakutsk;62.03;129.73;311760
Panvel;18.9944;73.1139;311434
Santa Ana;33.7367;-117.8819;311379
Guarujá;-23.9936;-46.2564;311230
Nizāmābād;18.672;78.094;311152
Quy Nhơn;13.7667;109.2333;311000
Ḩā’il;27.5167;41.6833;310897
Datang;22.9406;113.9436;310889
Longquan;25.9106;114.786;310700
Mitchells Plain;-34.0506;18.6181;310485
Gwangju;37.3667;127.2833;310278
Yokkaichi;34.965;136.6244;310263
Chalco;19.2647;-98.8975;310130
Shahrīār;35.6722;51.0236;309607
Shahr-e Qods;35.7097;51.1119;309605
Kurgan;55.4667;65.35;309285
Ciudad del Este;-25.5167;-54.6167;308983
Ann Arbor;42.2759;-83.731;308983
St. Paul;44.9478;-93.1039;308806
Karlsruhe;49.0092;8.404;308707
Safi;32.2833;-9.2333;308508
Ciudad Benito Juárez;25.65;-100.0833;308285
Karawang;-6.3125;107.295;307880
Sariwŏn;38.5064;125.7597;307764
Suzano;-23.5428;-46.3108;307364
Newark;40.7245;-74.1725;307355
Nghi Sơn;19.417;105.75;307304
Parbhani;19.27;76.78;307170
Puerto Princesa;9.75;118.75;307079
Hisar;29.15;75.7;307024
Vladikavkaz;43.04;44.6775;306978
Windsor;42.2833;-83.0;306519
Kasugai;35.2475;136.9722;306449
Ciudad Santa Catarina;25.6833;-100.45;306322
Puerto La Cruz;10.2;-64.6333;306261
Fatehpur;27.98;74.95;305638
Ciudad Victoria;23.7389;-99.1431;305155
Playa del Carmen;20.6281;-87.0755;304942
Yeşilyurt;38.2961;38.2489;304839
Yonghetun;39.9131;116.6458;304781
Irvine;33.6772;-117.7738;304527
Kāshān;33.9825;51.4325;304487
Minna;9.6139;6.5569;304113
Sumbawanga;-7.9667;31.6167;303986
Orël;52.9686;36.0694;303696
Akita;39.72;140.1026;302984
Kurume;33.3192;130.5083;302858
Az Zaqāzīq;30.5667;31.5;302840
Podolsk;55.4311;37.5456;302831
Palmas;-10.1844;-48.3336;302692
Montpellier;43.6119;3.8772;302454
Vila Nova de Gaia;41.1333;-8.6167;302295
Bahía Blanca;-38.7167;-62.2667;301572
Al Waqf;26.0808;32.4245;301486
San Bernardo;-33.5833;-70.7;301313
San Juan del Río;20.3833;-99.9833;301237
Armenia;4.53;-75.68;301226
Augsburg;48.3689;10.8978;301033
Qianzhou;28.276;109.712;301000
Popayán;2.4542;-76.6092;300837
Al Qunfudhah;19.1264;41.0789;300516
Yakou;33.295;113.5269;300200
Newcastle;54.978;-1.6102;300196
Oulgaret;11.957;79.7737;300104
Āwasa;7.05;38.4667;300100
Ingrāj Bāzār;25.0119;88.1433;300088
Oaxaca;17.0606;-96.7253;300050
Binjai;3.5986;98.4803;300009
Al Maţarīyah;31.1833;32.0333;300000
Ash Shāmīyah;31.9636;44.5989;300000
Bada Barabīl;22.12;85.4;300000
Sucre;-19.0475;-65.26;300000
Al ‘Ajamī;31.0959;29.7604;300000
Khairpur Tamewah;29.58;72.2328;300000
Barr Eliâs;33.775;35.9;300000
Oyster Bay;40.7846;-73.514;299958
Ar Raqqah;35.95;39.01;299824
Chakwal;32.9303;72.8556;299751
Ōakashichō;34.65;135.0;299699
Afyonkarahisar;38.7578;30.5386;299673
Dod Ballāpur;13.292;77.543;299594
Camaçari;-12.6978;-38.3239;299579
Ciudad General Escobedo;25.7933;-100.1583;299364
Catania;37.5;15.0903;298762
Jember;-8.1727;113.6873;298585
Al Mubarraz;25.3833;49.6;298562
Pekalongan;-6.8833;109.6667;298386
Los Mochis;25.7835;-108.9937;298009
Toshima;35.7333;139.7167;297954
Pachuca;20.1;-98.75;297848
Yangsan;35.3333;129.0333;297532
Valladolid;41.6528;-4.7236;297459
Tampico;22.2553;-97.8686;297284
Bihār;25.197;85.518;297268
Espoo;60.2056;24.6556;297132
Malabo;3.7456;8.7744;297000
Pilar;-34.45;-58.9167;296826
Valparaíso;-33.0461;-71.6197;296655
Cirebon;-6.7071;108.5574;296389
Tagum;7.4478;125.8078;296202
Santa Rosa;38.4458;-122.7067;296180
Darbhanga;26.17;85.9;296039
Comilla;23.45;91.2;296010
Battalgazi;38.4228;38.3656;295821
Sorong;-0.8667;131.25;295809
Shubrākhīt;31.0275;30.7128;295777
Floridablanca;7.2167;-73.0667;295724
Silang;14.2306;120.975;295644
Eloy Alfaro;-2.1733;-79.8311;295211
Pondokaren;-6.2811;106.7019;294996
Sikandarābād;28.4512;77.6955;294858
Kafr Şaqr;30.7964;31.6261;294765
Vila Teixeira da Silva;-12.1958;15.8556;294494
Pānīpat;29.3875;76.97;294292
Rangpur;25.75;89.2444;294265
Białystok;53.1353;23.1456;294242
Canton;40.8078;-81.3676;294047
Asheville;35.5707;-82.5537;294013
Flint;43.0236;-83.6921;293893
Vigo;42.2314;-8.7124;293652
Coacalco;19.6333;-99.0931;293444
Āīzawl;23.7272;92.7178;293416
Bāli;22.65;88.34;293373
Bradford;53.8;-1.75;293277
Mabalacat;15.22;120.58;293244
Dexing;28.9306;117.5947;293201
Winter Haven;28.0118;-81.7014;293093
Graz;47.0708;15.4386;292630
Palni;10.45;77.5161;292301
Resistencia;-27.4514;-58.9867;291720
Groznyy;43.3125;45.6986;291687
Chimbote;-9.0745;-78.5936;291408
Strasbourg;48.5833;7.7458;291313
Bergen;60.3894;5.33;291189
Gatineau;45.4833;-75.65;291041
Surajgarha;25.25;86.23;290998
Tegal;-6.8675;109.1375;290988
Anchorage;61.1508;-149.1091;290674
Batna;35.55;6.1667;290645
Aarhus;56.1572;10.2107;290598
Morioka;39.7021;141.1545;290553
Lincoln;40.8099;-96.6784;290531
Hulin;45.7667;132.9333;290000
Hong’an;47.21;123.61;289999
Karīmnagar;18.4386;79.1288;289821
Santa Maria;14.82;120.96;289820
Tambov;52.7231;41.4539;289701
Dewās;22.96;76.06;289550
Güngören;41.0225;28.8717;289331
Magway;20.15;94.95;289247
Farg‘ona;40.3864;71.7864;288850
Concord;35.3933;-80.6369;288783
Hugli;22.9;88.39;288506
Chunchura;22.9;88.39;288506
Sétif;36.19;5.41;288461
Sonpur;25.7;85.18;288102
Meguro;35.6333;139.6833;288088
Machala;-3.2667;-79.9667;288072
San Lorenzo;-25.34;-57.52;287977
Jersey City;40.7184;-74.0686;287899
Ichalkaranji;16.7;74.47;287570
Punto Fijo;11.7167;-70.1833;287558
Várzea Grande;-15.65;-56.1333;287526
Tirupati;13.65;79.42;287482
Pathein;16.7842;94.7333;287071
Chernihiv;51.4939;31.2947;286899
Sincelejo;9.295;-75.3961;286716
Cluj-Napoca;46.7667;23.5833;286598
Springfield;37.1943;-93.2916;286280
Sekondi;4.9433;-1.704;286248
Tacna;-18.0147;-70.2489;286240
Tin Shui Wai;22.46;114.002;286232
Juazeiro do Norte;-7.2;-39.3333;286120
Al Qurnah;31.0158;47.4306;286073
Korhogo;9.4167;-5.6167;286071
Bhatinda;30.23;74.9519;285813
Katowice;50.2625;19.0217;285711
Jālna;19.8333;75.8833;285577
Foz do Iguaçu;-25.54;-54.5875;285415
Bolton;53.578;-2.429;285372
San Pablo;14.07;121.325;285348
Huixquilucan;19.3611;-99.3508;284965
Plano;33.0502;-96.7486;284948
Qillīn;31.0464;30.8546;284853
Croix-des-Bouquets;18.5761;-72.2269;284812
San Juan Sacatepéquez;14.7189;-90.6442;284798
Ljubljana;46.0514;14.5061;284293
Fukushima;37.7608;140.4747;284282
Bago;17.3333;96.4833;284179
Delmas;18.55;-72.3;284079
Fuquan;26.6863;107.5204;283904
Ibaraki;34.8164;135.5686;283835
Shreveport;32.4653;-93.7955;283536
Ostrava;49.8356;18.2925;283504
Poltava;49.5894;34.5514;283402
Wiesbaden;50.0825;8.24;283083
Satna;24.6005;80.8322;283004
Sannai;24.1582;80.751;283004
Huozhou;36.569;111.7551;282905
Temuco;-38.7333;-72.6667;282415
Ica;-14.0667;-75.7333;282407
Tongchuanshi;35.08;109.03;282258
Jining;41.03;113.08;281716
Chuncheon;37.8667;127.7333;281596
Sakarya;40.7833;30.4;281489
İnegöl;40.0806;29.5097;281384
Kaura Namoda;12.6;6.5897;281367
Davenport;41.5565;-90.6053;281333
Malārd;35.6806;50.9783;281027
Lubbock;33.5657;-101.8879;280890
Lakeland;28.0557;-81.9545;280346
Sterlitamak;53.6333;55.95;280233
Bukhara;39.7667;64.4231;280187
Santa Ana;13.995;-89.5561;280000
Sumbe;-11.2053;13.8417;279968
Mingaora;34.7717;72.36;279914
Çorlu;41.15;27.8;279251
Kherson;46.6425;32.625;279131
Lucena;13.93;121.62;278924
Petrópolis;-22.505;-43.1789;278881
Mamuju;-2.6833;118.9;278764
Mau;25.9417;83.5611;278745
Nizhnevartovsk;60.95;76.6;278725
Long Xuyên;10.3736;105.4458;278658
Petrozavodsk;61.7833;34.3333;278551
Gyeongsan;35.8167;128.7333;278500
Bārāsat;22.72;88.48;278435
South Bend;41.6767;-86.2696;278061
Pematangsiantar;2.96;99.06;278055
Maastricht;50.85;5.6833;277721
Việt Trì;21.3;105.4333;277539
Sunderland;54.906;-1.381;277417
Kostroma;57.7681;40.9269;277393
Gagnoa;6.1333;-5.9333;277044
Xingsha;28.2573;113.1234;277034
Dire Dawa;9.6;41.8667;277000
Lashkar Gāh;31.5831;64.3692;276831
Itagüí;6.1667;-75.6167;276744
Juliaca;-15.4833;-70.1333;276110
Chula Vista;32.6281;-117.0144;276103
Posadas;-27.3667;-55.9;275988
Farrukhābād;27.39;79.581;275754
Chandler;33.2825;-111.8514;275618
Kunsan;35.9833;126.7167;275155
Yeosu;34.7333;127.7333;274917
Qarshi;38.8667;65.8;274891
Saugor;23.83;78.71;274556
Khmelnytskyi;49.4167;27.0;274452
Nassau;25.0781;-77.3386;274400
Ratlām;23.334;75.037;273892
Crato;-7.4639;-63.04;273883
Yeosu;34.7607;127.6622;273761
Shaowu;27.3403;117.4925;273721
Pasarkemis;-6.1703;106.53;273659
Cotia;-23.6042;-46.9194;273640
Taboão da Serra;-23.5328;-46.7994;273542
San Mateo;14.6969;121.1219;273306
Novorossiysk;44.7167;37.7833;273278
Tsu;34.7184;136.5057;273267
Rockford;42.2596;-89.064;273237
Imperatriz;-5.5333;-47.4833;273110
Los Alcarrizos;18.5167;-70.0167;272776
Soubré;5.7833;-6.6;272773
Reading;40.34;-75.9267;272712
Székesfehérvár;47.1956;18.4089;272474
Majene;-3.5403;118.9707;272377
Sumida;35.7;139.8167;272085
Chopda;21.25;75.3;271863
Gabela;-10.85;14.3667;271843
Dayr az Zawr;35.3333;40.15;271800
Iaşi;47.1622;27.5889;271692
Santa Maria;-29.6833;-53.8;271633
Sartā;36.4491;53.3234;271467
Eugene;44.0564;-123.1174;270990
Iksan;35.9439;126.9544;270758
Mỹ Tho;10.35;106.35;270700
Nguru;12.8792;10.4525;270632
Arnavutköy;41.1856;28.7406;270549
Derby;52.9247;-1.478;270468
Mito;36.3658;140.4712;270445
Kunp’o;37.35;126.95;270443
Gombe;10.2904;11.17;270366
Bijiao;22.9253;113.2067;270310
Cherkasy;49.4444;32.0597;269836
Bayat;40.5455;34.957;269595
Handwāra;34.3997;74.2817;269311
Kunduz;36.7286;68.8681;268893
Drug;21.19;81.28;268806
Wilmington;34.2099;-77.8866;268625
Mönchengladbach;51.2;6.4333;268465
Gijón;43.5333;-5.7;268313
Brāhmanbāria;23.9656;91.108;268279
Santa Clarita;34.4175;-118.4964;268273
Thái Bình;20.4461;106.3422;268167
Ichihara;35.4981;140.1154;268038
Tarija;-21.5333;-64.7333;268000
Shibīn al Kawm;30.5586;31.01;267945
Plymouth;50.3714;-4.1422;267918
Aswān;24.0889;32.8997;267913
Bimo;4.3137;18.3065;267859
Murmansk;68.9706;33.075;267422
Gilbert;33.31;-111.7463;267267
Maradi;13.4833;7.1;267249
Xiangkhoang;19.4167;103.5;267172
Anantapur;14.68;77.599;267161
Adıyaman;37.7639;38.2778;267131
Kütahya;39.4167;29.9833;266784
Yoshkar-Ola;56.65;47.8833;266675
Marabá;-5.35;-49.1167;266536
Salem;44.9233;-123.0244;266420
Saskatoon;52.1333;-106.6833;266141
Sumaré;-22.8219;-47.2669;265955
Killeen;31.0753;-97.7297;265921
Nagaoka;37.4462;138.8512;265868
Djelfa;34.6667;3.25;265833
Sumy;50.9119;34.8028;265758
Khwazakhela;34.9333;72.4667;265571
Chernivtsi;48.3;25.9333;265471
Suncheon;34.9506;127.4875;265390
Kibaha;-6.7667;38.9167;265360
Nalchik;43.4833;43.6167;265162
Sfax;34.74;10.76;265131
Gent;51.0536;3.7253;265086
Gravataí;-29.9333;-50.9833;265070
Antsirabe;-19.8667;47.0333;265018
Feni;23.0183;91.41;265000
Engels;51.5017;46.1222;264990
Imphāl;24.8074;93.9384;264986
Taunggyi;20.7836;97.0354;264804
Nogales;31.3;-110.9333;264782
Ed Daein;11.4608;26.1283;264734
Dezfūl;32.3786;48.4144;264709
Mossoró;-5.1878;-37.3439;264577
Round Lake Beach;42.3791;-88.0811;264451
Potosí;-19.5892;-65.7533;264402
Osmaniye;37.075;36.25;264373
Columbus;32.51;-84.8771;264282
Itajaí;-26.9;-48.6667;264054
North Las Vegas;36.2883;-115.0888;264022
Tāluqān;36.7167;69.5167;263800
Constanţa;44.1667;28.6333;263707
Luque;-25.27;-57.4872;263604
Yao;34.6269;135.601;263436
Jalālābād;34.4342;70.4478;263312
Nawabshah;26.2442;68.41;263102
Talisay;10.25;123.83;263048
Jagdalpur;19.18;81.92;263000
Gelsenkirchen;51.5167;7.1;263000
Tchibota;-4.1794;11.3731;262931
Kafr ad Dawwār;31.1311;30.13;262748
Quilmes;-34.7167;-58.2667;262379
Wollongong;-34.4331;150.8831;261896
Zhytomyr;50.25;28.6667;261624
Volta Redonda;-22.5228;-44.1039;261584
Fukui;36.0641;136.2196;261474
Arrah;25.5514;84.6603;261430
Malolos;14.8433;120.8114;261189
Heroica Nogales;31.3186;-110.9458;261137
Bariadi;-2.7919;33.9894;260927
Hong;10.2317;12.9303;260900
Oumé;6.3833;-5.4167;260786
Fuchū;35.6689;139.4776;260508
Minato;35.6581;139.7514;260486
Boksburg;-26.2125;28.2625;260321
Olongapo;14.83;120.28;260317
Quảng Ngãi;15.1167;108.8;260252
Al Ḩamzah;31.7339;45.0086;260000
Kennewick;46.1978;-119.1732;259995
Qo‘qon;40.5286;70.9425;259700
Kotri;25.374;68.3013;259358
St. Petersburg;27.7931;-82.6652;259343
Mişrātah;32.3775;15.092;259056
Aydın;37.8481;27.8453;259027
Singa;13.15;33.9333;259000
Manta;-0.95;-80.7162;258697
Tallahassee;30.4551;-84.2527;258696
Kakogawachō-honmachi;34.75;134.8333;258497
Isparta;37.7647;30.5567;258375
Siverek;37.75;39.3167;258265
Ndulo;-11.4833;15.8333;258161
Antalya;36.8874;30.7075;258139
Huayin;34.5833;110.1;258113
Hiratsuka;35.3167;139.35;257662
Rāniyah;36.255;44.8836;257577
Annaba;36.9;7.7667;257359
Governador Valadares;-18.85;-41.9333;257172
Khimki;55.8892;37.445;257006
Ondo;7.0833;4.8333;257005
Etāwah;26.77;79.03;256838
Siddhirganj;23.6833;90.5167;256760
Horlivka;48.3;38.05;256714
Indaiatuba;-23.0903;-47.2181;256223
Bloemfontein;-29.1167;26.2167;256185
Ấp Đa Lợi;11.9333;108.4667;256019
Türkmenabat;39.0833;63.5667;256000
Malkājgiri;17.4519;78.5362;255899
Vitoria-Gasteiz;42.85;-2.6833;255886
Germiston;-26.2178;28.1672;255863
Nonthaburi;13.8667;100.5167;255671
Verona;45.4386;10.9928;255588
Tuzla;40.8161;29.3006;255468
Westminster;51.4947;-0.1353;255324
Laredo;27.5625;-99.4874;255293
Kuala Terengganu;5.3292;103.1361;255109
San Pedro Carchá;15.4667;-90.3;255006
Moçâmedes;-15.1953;12.1508;255000
Irving;32.8583;-96.9702;254962
Turmero;10.2283;-67.4725;254880
Tokushima;34.0667;134.55;254510
São Carlos;-22.0;-47.8908;254484
Longueuil;45.5333;-73.5167;254483
Marilao;14.7581;120.9481;254453
Tuni;17.35;82.55;254425
Ash Shaţrah;31.4097;46.1717;254000
Sab‘ al Būr;33.4644;44.1536;254000
Fort-de-France;14.6;-61.0667;253995
Mawlamyine;16.4847;97.6258;253734
Peoria;40.752;-89.6154;253467
Godomè;6.3667;2.35;253262
Rāpar;23.57;70.63;253137
Samāstipur;25.8629;85.7811;253136
Aksaray;38.3742;34.0289;253113
Shinozaki;33.9578;130.9414;252844
Parnamirim;-5.9167;-35.25;252716
Kızıltepe;37.1939;40.5861;252656
Jhenida;23.5417;89.1833;252500
Turku;60.45;22.2667;252468
Bharatpur;27.22;77.48;252342
Aachen;50.7756;6.0836;252136
Begusarai;25.42;86.13;252008
Kediri;-7.8111;112.0047;252000
Kanggye;40.9667;126.6;251971
Chiayi;23.48;120.4497;251938
Çekme;41.0369;29.1786;251937
Hakodate;41.7686;140.7289;251891
Tacloban;11.24;125.0;251881
Jūnāgarh;19.8599;82.9338;251842
Braunschweig;52.2667;10.5167;251804
İskenderun;36.5817;36.165;251682
Pécs;46.0711;18.2331;251412
Sōka;35.8254;139.8053;251390
Nedumana;8.9139;76.6889;251384
Higüey;18.6167;-68.7;251243
Los Teques;10.3333;-67.0417;251200
Montgomery;32.3482;-86.2668;251158
Jinshi;29.5;111.908;251064
Wolverhampton;52.5833;-2.1333;250970
Pointe-à-Pitre;16.2411;-61.5331;250952
Al Fallūjah;33.35;43.7833;250884
Timişoara;45.7597;21.23;250849
Bata;1.865;9.77;250770
Rạch Giá;10.0167;105.0833;250660
Companiganj;22.875;91.2833;250579
Venice;45.4375;12.3358;250369
Taganrog;47.2167;38.9167;250287
Bābol;36.5475;52.6783;250217
São José;-27.6;-48.6167;250181
La Paz;24.1422;-110.3108;250141
Al Bayḑā’;32.7664;21.7417;250000
Natogyi;21.4167;95.65;250000
Kurmuk;10.55;34.2833;250000
Râs el-Barr;31.5125;31.8256;250000
Kalār;34.6292;45.3222;250000
Bojnūrd;37.4722;57.3289;250000
Türkistan;43.3019;68.2692;250000
New Delhi;28.6139;77.2089;249998
Las Condes;-33.4117;-70.55;249893
Goma;-1.6794;29.2336;249862
Rishon LeẔiyyon;31.95;34.8;249860
Komsomol’sk-na-Amure;50.5667;137.0;249810
Campeche;19.85;-90.5306;249623
Manzhouli;49.598;117.379;249472
Tiruvottiyūr;13.16;80.3;249446
Palangkaraya;-2.21;113.92;249434
Chesapeake;36.6778;-76.3023;249377
Burnaby;49.2667;-122.9667;249125
Rāmnagar;27.17;84.32;249102
Limeira;-22.565;-47.4019;249046
Carmen;18.6431;-91.8306;248845
Gāndhīdhām;23.08;70.13;248705
Banikoara;11.3;2.4333;248621
Chemnitz;50.8333;12.9167;248563
Salūmbar;24.08;74.02;248337
Kyŏngju;35.85;129.2167;248244
Mérida;8.48;-71.19;248192
Glendale;33.5791;-112.2311;248083
Sibu;2.2878;111.8308;247995
Qā’em Shahr;36.4636;52.8581;247953
Paraná;-31.7331;-60.5297;247863
Büyükçekmece;41.02;28.5775;247736
Kiel;54.3233;10.1394;247717
Sahiwal;30.6611;73.1083;247706
A Coruña;43.365;-8.41;247604
Navotas;14.6667;120.9417;247543
Santa Clara;22.4069;-79.9649;247436
Mehrabpur;27.0994;68.4208;247280
Yamagata;38.2554;140.3396;247234
York;39.9651;-76.7315;247176
Khomeynī Shahr;32.6803;51.5361;247128
Beykoz;41.1342;29.0922;246700
Tsukuba-kenkyūgakuen-toshi;36.0835;140.0764;246647
Oruro;-17.9833;-67.15;246501
Macaé;-22.3708;-41.7869;246391
Győr;47.6842;17.6344;246159
Al ‘Āshir min Ramaḑān;30.3065;31.7415;246148
Mahajanga;-15.7167;46.3167;246022
Mount Lavinia;6.8731;79.8758;245974
Northampton;52.2304;-0.8938;245899
Krishnarājpur;13.012;77.6951;245797
Hafizabad;32.0714;73.6878;245751
Nelamangala;13.102;77.374;245624
Beichengqu;40.437;113.11;245608
Abertawe;51.6167;-3.95;245508
Syktyvkar;61.6667;50.8167;245313
Rivne;50.6192;26.2519;245289
Gdynia;54.5175;18.54;245222
Nashua;42.7491;-71.491;245209
Barnsley;53.5547;-1.4791;245199
Taiping;4.85;100.7333;245182
Rondonópolis;-16.4667;-54.6333;244897
São José de Ribamar;-2.55;-44.05;244579
Puducherry;11.9167;79.8167;244377
Merlo;-34.6653;-58.7275;244168
Portoviejo;-1.0561;-80.4553;244129
Damanhūr;31.0361;30.4694;244043
Garland;32.91;-96.6304;244026
Kabinda;-6.13;24.48;244000
Jessore;23.1704;89.2;243987
Kesbewa;6.7953;79.9386;243842
Tripoli;34.4367;35.8344;243800
Fuji;35.1613;138.6763;243739
Eindhoven;51.4333;5.4833;243730
Sabzevār;36.2125;57.6764;243700
Dourados;-22.2208;-54.8058;243368
Bahir Dar;11.6;37.3833;243300
Yoshiichō-shimobaru;33.18;129.715;243223
Myitkyina;25.3833;97.4;243031
Rāmgundam;18.7639;79.475;242979
Pālanpur;24.1722;72.4333;242936
Tuy Hòa;13.0819;109.295;242840
Sasebo;33.18;129.715;242664
Sapele;5.9;5.6667;242652
Birāṭnagar;26.4542;87.2797;242548
Pandharpur;17.6778;75.3278;242515
Qyzylorda;44.85;65.5167;242462
St. Catharines;43.1833;-79.2333;242460
Chigasaki;35.3333;139.4;242347
Araraquara;-21.7939;-48.1758;242228
Kahama;-3.8375;32.6;242208
Halle;51.4828;11.9697;242083
Americana;-22.7386;-47.3311;242018
Zhangping;25.2902;117.42;242000
Man;7.4;-7.55;241969
Sete Lagoas;-19.4658;-44.2469;241835
Bānchpār;23.2;90.8;241799
Haeju;38.0333;125.7167;241599
Soyapango;13.7333;-89.15;241403
Masaurhi Buzurg;25.35;85.02;241216
Baruta;10.4322;-66.8739;240755
Düzce;40.8417;31.1583;240633
Marília;-22.2139;-49.9458;240590
Katihār;25.53;87.58;240565
Scottsdale;33.6872;-111.8651;240537
Tarapoto;-6.4833;-76.3667;240453
Atushi;39.7162;76.1684;240368
Abī al Khaşīb;30.4411;47.9725;240300
Jacareí;-23.3053;-45.9658;240275
Anju;39.62;125.66;240117
Bunkyō-ku;35.7167;139.75;240069
Byatarayanpur;13.0659;77.5922;239902
Ahor;25.367;72.783;239642
Diaobingshancun;42.4667;123.5667;239405
Magdeburg;52.1317;11.6392;239364
Yato;35.4833;139.45;239146
Matsumoto;36.238;137.972;239115
Szeged;46.255;20.145;239025
Chimoio;-19.1167;33.45;238976
Kasulu;-4.58;30.1;238321
Elche;38.2669;-0.6983;238293
Tarsus;36.9165;34.8951;238276
Ivano-Frankivsk;48.9228;24.7106;238196
Chōfugaoka;35.6506;139.5407;238087
González Catán;-34.7667;-58.6167;238067
Nyíregyháza;47.9531;21.7271;238020
Wuyishan;27.7564;118.0353;238000
Shenmu;38.827;110.499;237846
Tuticorin;8.7642;78.1348;237830
As Sīb;23.6703;58.1891;237816
Gangānagar;29.92;73.88;237780
Braşov;45.6667;25.6167;237589
Lafayette;30.2082;-92.0325;237565
Āmol;36.4703;52.3467;237528
Stavanger;58.97;5.7314;237369
Sandnes;58.8517;5.7361;237369
Nizhnekamsk;55.6333;51.8167;237250
Monclova;26.9103;-101.4222;237169
Chishui;28.5904;105.6975;237052
Djougou;9.7;1.6667;237040
Norfolk;36.8945;-76.259;236973
Mirpur Khas;25.525;69.0158;236961
Lille;50.6278;3.0583;236710
P’yŏngsŏng-si;39.2605;125.8618;236609
P’yŏng-dong;39.1919;125.8178;236583
Centurion;-25.8603;28.1894;236580
North Hempstead;40.7912;-73.6688;236573
Tinkhang;27.23;95.17;236571
Rewa;24.53;81.3;236519
Pākdasht;35.485;51.6794;236319
Kajang;2.9931;101.7889;236240
Petaẖ Tiqwa;32.0889;34.8864;236169
Abhā;18.2169;42.5053;236157
Freiburg im Breisgau;47.995;7.85;236140
Al Minyā;28.1194;30.7444;236043
Iseyin;7.9667;3.6;236000
Central District;22.2867;114.155;235953
Gaborone;-24.6581;25.9122;235884
Arlington;38.8786;-77.1011;235845
Juazeiro;-9.4306;-40.5028;235816
Zinder;13.8053;8.9883;235605
Bole;44.8539;82.0514;235585
Shakhty;47.7;40.2333;235492
Ganda;-13.0167;14.6333;235486
Uluberiya;22.47;88.11;235345
Bulandshahr;28.4069;77.8497;235310
Banda Aceh;5.55;95.3175;235305
Najafābād;32.6447;51.3603;235281
Shibuya-ku;35.6594;139.7006;235193
Bayamo;20.3817;-76.6428;235107
Limassol;34.6747;33.0442;235056
Borūjerd;33.9111;48.7522;234997
Ibb;13.9759;44.1709;234837
García;25.8167;-100.5833;234698
Arapiraca;-9.7519;-36.6608;234696
Longquan;28.0667;119.1333;234626
Miri;4.3925;113.9861;234541
Maracanaú;-3.8667;-38.6333;234392
Oral;51.2225;51.3725;234184
Craiova;44.3333;23.8167;234140
Formosa;-26.1833;-58.1833;234000
Appleton;44.278;-88.3892;233947
Chauhanpatti;25.15;82.6;233691
Bo;7.9564;-11.74;233684
Mambéré;5.5;15.5;233666
Damboa;11.15;12.75;233500
Groningen;53.2189;6.5675;233273
Ipswich;-27.6144;152.7608;232930
Teluk Intan;4.0333;101.0167;232800
San Cristóbal;18.4167;-70.1056;232769
Cannanore;11.8745;75.3704;232486
Rāichūr;16.2;77.37;232456
Okara;30.8092;73.4536;232386
Saga;33.2667;130.3;232359
Saidpur;25.8004;89.0;232209
Lin’an;23.6279;102.8014;232160
Colombo;-25.2919;-49.2239;232056
Machilīpatnam;16.17;81.13;232000
Beni;0.5;29.4667;231952
Nazipur;25.0415;88.7605;231900
Purwokerto;-7.4278;109.2417;231765
Bratsk;56.1167;101.6;231602
Biyalā;31.1747;31.2204;231569
Madan;30.3469;48.2825;231476
Rancagua;-34.1667;-70.75;231370
Phú Yên;21.4156;105.8739;231363
Neuquén;-38.9525;-68.0642;231198
Divinópolis;-20.1389;-44.8839;231091
Qarchak;35.4267;51.5842;231075
Ormoc;11.0106;124.6075;230998
Fresnillo;23.175;-102.8675;230865
Dzerzhinsk;56.2333;43.45;230639
Granada;37.1781;-3.6008;230595
Sơn Tây;21.1333;105.5;230577
Singkawang;0.9;108.9833;230376
Zégoua;10.4875;-5.6536;230360
Kulai;1.6667;103.6;230000
Barishal;22.7;90.3667;230000
Pāli;25.77;73.33;229956
Songadh;21.167;73.564;229782
Noginsk;64.4833;91.2333;229731
Gadda Madiral;18.7519;79.5133;229644
Orsk;51.2;58.5667;229255
Ordu;40.9833;37.8833;229214
Košice;48.7167;21.25;229040
Kasukabe;35.9753;139.7523;228975
Miriālgūda;16.8667;79.5833;228891
Aguadilla;18.4382;-67.1537;228854
Envigado;6.1667;-75.5667;228848
Haridwār;29.945;78.163;228832
Rock Hill;34.9415;-81.0241;228811
Fremont;37.5265;-121.9843;228795
Vizianagaram;18.1159;83.406;228720
Cobán;15.4833;-90.3667;228664
Khénifra;32.9394;-5.6675;228567
Guantánamo;20.1367;-75.2139;228436
Krefeld;51.3333;6.5667;228426
Şabyā;17.1489;42.6258;228375
Fargo;46.8651;-96.8292;228364
Rāisinghnagar;29.5342;73.4477;228330
Uşak;38.6778;29.4042;228328
Pāthardi;19.17;75.18;228279
Magé;-22.6528;-43.0408;228127
Gulfport;30.4274;-89.0704;228022
Neya;34.7667;135.6333;227997
Mel Pālaiyam;8.7;77.7069;227895
Novo Hamburgo;-29.6778;-51.1308;227732
Ipatinga;-19.5;-42.5333;227731
Sāqultah;26.65;31.6667;227719
Choloma;15.6333;-88.0;227535
Kropyvnytskyi;48.5;32.2667;227413
Khatīma;28.92;79.97;227226
Daşoguz;41.8333;59.9667;227184
Khanewal;30.3;71.9333;227059
Petlād;22.47;72.8;227031
Kamianske;48.5167;34.6167;226845
Bremerton;47.5436;-122.7121;226805
Ageoshimo;35.9774;139.5932;226616
Changhua;24.0667;120.5333;226518
Regina;50.4547;-104.6067;226404
Badalona;41.4489;2.2461;225957
Dianbu;31.8883;117.4608;225808
Kolpino;59.7333;30.6;225801
Rio Verde;-17.745;-50.9167;225696
Meycauayan;14.73;120.95;225673
Presidente Prudente;-22.1256;-51.3889;225668
Green Bay;44.5148;-87.9895;225633
Varāmīn;35.3508;51.6358;225628
Padangsidempuan;1.3786;99.2722;225544
Uacu Cungo;-11.3583;15.1194;225520
Enterprise;36.0091;-115.2278;225461
Hunchun;42.863;130.366;225454
Tarrasa;41.57;2.013;225277
Ternopil;49.5667;25.6;225238
Kimberley;-28.7383;24.7639;225160
Nadiād;22.69;72.86;225132
Toamasina;-18.155;49.41;225116
Rennes;48.1147;-1.6794;225081
Mutare;-18.9667;32.6333;224802
Cikupa;-6.4947;106.6511;224678
Ratodero;27.8;68.2833;224666
Chuādānga;23.644;88.8556;224576
Carlos Manuel de Céspedes;21.5767;-78.2775;224488
Blagoveshchensk;50.25;127.5333;224419
Nong’an;44.4347;125.175;224387
Ōta;36.2911;139.3754;224358
Itaboraí;-22.7439;-42.8589;224267
Puerto Vallarta;20.6458;-105.2222;224166
Capiatá;-25.35;-57.42;224152
Viamão;-30.0808;-51.0228;224116
Takarazuka;34.8114;135.3406;224054
Chapecó;-27.0958;-52.6178;224013
Banfield;-34.75;-58.3833;223898
Toluca;19.2925;-99.6569;223876
Atsugichō;35.4333;139.3667;223815
Paramaribo;5.8522;-55.2039;223757
Cox’s Bāzār;21.4272;92.005;223522
Bandar-e Būshehr;28.9264;50.8514;223504
Itapevi;-23.5489;-46.9342;223404
Staryy Oskol;51.3;37.8333;223360
Probolinggo;-7.75;113.2167;223159
Hialeah;25.8696;-80.3045;222996
Tanjore;10.787;79.1378;222943
Ji’an Shi;41.1253;126.194;222938
Angarsk;52.55;103.9;222855
Hachinohe;40.5123;141.4884;222799
Ijebu-Ode;6.8208;3.9208;222653
Velikiy Novgorod;58.55;31.2667;222594
Barra do Dande;-8.4728;13.3731;222528
Mezitli;36.75;34.5333;222436
Sandton;-26.107;28.0517;222415
Beji;-6.3704;106.8176;222372
Cork;51.8972;-8.47;222333
Dili;-8.5536;125.5783;222323
Owo;7.1961;5.5864;222262
Swindon;51.56;-1.78;222193
Myeik;12.4333;98.6;222056
Cabo Frio;-22.8789;-42.0189;221987
Kichha;28.92;79.5;221965
Longjiang;22.8711;113.0684;221881
Katri;23.48;80.4;221875
Korolëv;55.9167;37.8167;221797
Sarıçam;37.0333;35.4167;221733
Guéckédou;8.5667;-10.1333;221715
Neyshābūr;36.22;58.82;221700
Sousse;35.8333;10.6333;221530
Tabora;-5.0167;32.8;221466
Sóc Trăng;9.6028;105.9736;221430
Dagarua;25.8;87.64;221229
Deltona;28.905;-81.2137;221137
Tchaourou;8.8833;2.6;221108
Rufisque;14.7167;-17.2667;221066
San Bernardino;34.1416;-117.2943;221041
Duekoué;6.7333;-7.35;220953
Gainesville;29.6804;-82.3459;220929
Sambhal;28.58;78.55;220813
San Felipe;10.3406;-68.7369;220786
Sāveh;35.0278;50.3611;220762
Mainz;49.9994;8.2736;220552
Santa Luzia;-19.77;-43.8506;220444
Chí Linh;21.133;106.383;220421
La Vega;19.22;-70.53;220279
Singrauliya;24.202;82.666;220257
El Jadid;33.2333;-8.5;220181
Kremenchuk;49.0631;33.4039;220174
Ashdod;31.8;34.65;220174
Prizren;42.2128;20.7392;220128
Spring Valley;36.0952;-115.2636;220114
Thatta;24.7461;67.9244;220000
Yenişehir;37.9333;40.2333;219759
Al Khubar;26.2833;50.2;219679
Osisioma;5.1497;7.3303;219632
Tacoma;47.2431;-122.4531;219234
Tuluá;4.0833;-76.2;219138
Zanzibar;-6.165;39.199;219007
Kafue;-15.7667;28.1833;219000
Konibodom;40.2833;70.4167;219000
Petrel;38.4789;-0.7967;218843
Messina;38.1936;15.5542;218786
Pangkalpinang;-2.1333;106.1167;218569
Roanoke;37.2785;-79.9581;218533
Bitung;1.4472;125.1978;218520
Santo Tomas;14.08;121.18;218500
San Miguel;13.4814;-88.1775;218410
Sabadell;41.5486;2.1075;218300
Lübeck;53.8697;10.6864;218095
Cartagena;37.6;-0.9833;218050
Naihāti;22.89;88.42;217900
Arakawa;35.7333;139.7833;217891
Galaţi;45.4233;28.0425;217851
Babylon;40.6925;-73.3586;217830
Laâyoune;27.1536;-13.2033;217732
Butembo;0.15;29.2833;217625
Oviedo;43.36;-5.845;217584
Tapachula;14.9;-92.2667;217550
Porbandar;21.6417;69.6293;217500
São Leopoldo;-29.76;-51.1469;217410
Apapa;6.45;3.3667;217362
Netanya;32.3286;34.8567;217200
Qostanay;53.2;63.62;217135
Alor Setar;6.1183;100.3694;217000
Wayaobu;37.1427;109.6752;216910
Zielona Góra;51.9333;15.5;216781
Batu;-7.872;112.525;216735
Gujiao;37.907;112.176;216723
José C. Paz;-34.5167;-58.7667;216637
Yamunānagar;30.133;77.288;216628
Banjarbaru;-3.4425;114.8325;216600
Valencia;7.9042;125.0928;216546
Ayacucho;-13.1631;-74.2244;216444
Wellington;-41.2889;174.7772;216200
Peñalolén;-33.4833;-70.55;216060
Dongxing;21.5478;107.9717;216053
Lutsk;50.75;25.3358;215986
La Ceiba;15.7792;-86.7931;215973
Ar Ruseris;11.85;34.3833;215857
Hortolândia;-22.8583;-47.22;215819
Pallāvaram;12.9675;80.1491;215417
Marg‘ilon;40.4711;71.7247;215400
Jiutepec;18.8833;-99.1667;215357
Brownsville;25.9975;-97.458;215269
Tân An;10.5333;106.4167;215250
Golmud;36.4072;94.9283;215214
San Rafael;-34.6;-68.3333;215020
Sidi Aïssa;36.5;4.2978;215000
Khargone;21.82;75.6187;215000
As Samāwah;31.3167;45.2833;215000
Maţraḩ;23.6167;58.5667;214901
Comalcalco;18.2801;-93.2018;214877
Cúa;10.1667;-66.8833;214823
Almere;52.3667;5.2167;214715
Vantaa;60.2944;25.0403;214605
Mokpo;34.7589;126.38;214534
La Victoria;10.2278;-67.3336;214492
Warnes;-17.5167;-63.1667;214216
Cascais;38.7;-9.4167;214158
Çiğli;38.4833;27.05;214065
Marcory;5.3;-3.9833;214061
Chilas;35.4194;74.0944;214000
Sikasso;11.3167;-5.6667;213977
Osan;37.1498;127.0771;213840
Oakville;43.45;-79.6833;213759
Secunderābād;17.4399;78.4983;213698
Sa Đéc;10.3;105.7667;213610
Turbat;26.0042;63.0606;213557
El Tigre;8.8861;-64.2611;213524
Bhuj;23.25;69.67;213514
Sodo;6.855;37.7808;213467
Isesaki;36.3114;139.1968;213303
Jerez de la Frontera;36.6817;-6.1378;213231
College Station;30.5852;-96.2959;213177
Norwich;52.6286;1.2928;213166
Częstochowa;50.8;19.1167;213107
Monghyr;25.381;86.465;213101
Luton;51.8783;-0.4147;213052
Chāpra;25.7848;84.7274;212955
Sidi Bel Abbès;35.1939;-0.6414;212935
Zhubei;24.8333;121.0119;212695
Tumaco;1.8067;-78.7647;212692
Trondheim;63.4297;10.3933;212660
Mallawī;27.7333;30.8333;212628
Kure;34.2492;132.5658;212159
Kuje;8.8822;7.2203;212100
Bhadrāvati;13.8485;75.705;212073
Taitō;35.7125;139.78;212038
‘Aqrah;36.7414;43.8933;212000
Cao Lãnh;10.4672;105.6303;211912
Guadalupe;22.7528;-102.5078;211740
Mytishchi;55.9167;37.7667;211606
Xigujing;31.1731;121.2723;211590
Irákleio;35.3403;25.1344;211370
Criciúma;-28.6775;-49.3697;211369
Panchkula;30.74;76.8;211355
Mirpur Bhtoro;24.73;68.25;210959
Burhānpur;21.3114;76.2289;210891
Olympia;47.0417;-122.8959;210877
Oberhausen;51.4967;6.8706;210824
Burgas;42.503;27.4702;210813
Sobral;-3.6739;-40.2389;210711
